[
  {
    "name": "AALST",
    "nameClean": "Aalst",
    "url": "https://nl.wikipedia.org/wiki/Station_Aalst",
    "lat": 50.94270851475151,
    "lon": 4.039138555526733,
    "region": "VLG",
    "province": "VOV",
    "city": "41002",
    "telegraphcode": "FLS",
    "opened": 1853,
    "platforms": 4,
    "tracks": 7,
    "lines": ["50", "82"]
  },
  {
    "name": "AALST-KERREBROEK",
    "nameClean": "Aalst-Kerrebroek",
    "url": "https://nl.wikipedia.org/wiki/Station_Aalst-Kerrebroek",
    "lat": 50.94827859340891,
    "lon": 4.024842381477356,
    "region": "VLG",
    "province": "VOV",
    "city": "41002",
    "telegraphcode": null,
    "opened": 1995,
    "platforms": null,
    "tracks": 1,
    "lines": ["82"]
  },
  {
    "name": "AALTER",
    "nameClean": "Aalter",
    "url": "https://nl.wikipedia.org/wiki/Station_Aalter",
    "lat": 51.09222631836963,
    "lon": 3.4495460987091064,
    "region": "VLG",
    "province": "VOV",
    "city": "44084",
    "telegraphcode": "FLT",
    "opened": 1838,
    "platforms": 2,
    "tracks": 4,
    "lines": ["50A"]
  },
  {
    "name": "AARSCHOT",
    "nameClean": "Aarschot",
    "url": "https://nl.wikipedia.org/wiki/Station_Aarschot",
    "lat": 50.984410428176645,
    "lon": 4.824038743972778,
    "region": "VLG",
    "province": "VBR",
    "city": "24001",
    "telegraphcode": "FRST",
    "opened": 1863,
    "platforms": null,
    "tracks": 5,
    "lines": ["35"]
  },
  {
    "name": "AARSELE",
    "nameClean": "Aarsele",
    "url": "https://nl.wikipedia.org/wiki/Station_Aarsele",
    "lat": 50.984610304234984,
    "lon": 3.4180946769309912,
    "region": "VLG",
    "province": "VWV",
    "city": "37015",
    "telegraphcode": "FAR",
    "opened": null,
    "platforms": null,
    "tracks": 2,
    "lines": ["73"]
  },
  {
    "name": "ACREN",
    "nameClean": "Acren",
    "url": "https://nl.wikipedia.org/wiki/Station_Acren",
    "lat": 50.732852976720785,
    "lon": 3.8470976221233286,
    "region": "WAL",
    "province": "WHT",
    "city": "55023",
    "telegraphcode": "FXA",
    "opened": 1855,
    "platforms": null,
    "tracks": null,
    "lines": ["90"]
  },
  {
    "name": "AISEAU",
    "nameClean": "Aiseau",
    "url": "https://nl.wikipedia.org/wiki/Station_Aiseau",
    "lat": 50.42945589699721,
    "lon": 4.5851461216807365,
    "region": "WAL",
    "province": "WHT",
    "city": "52074",
    "telegraphcode": "FAO",
    "opened": 1843,
    "platforms": null,
    "tracks": null,
    "lines": ["130"]
  },
  {
    "name": "ALKEN",
    "nameClean": "Alken",
    "url": "https://nl.wikipedia.org/wiki/Station_Alken",
    "lat": 50.886700282719886,
    "lon": 5.292540192604065,
    "region": "VLG",
    "province": "VLI",
    "city": "73001",
    "telegraphcode": "FAK",
    "opened": 1847,
    "platforms": null,
    "tracks": 2,
    "lines": ["21"]
  },
  {
    "name": "AMAY",
    "nameClean": "Amay",
    "url": "https://nl.wikipedia.org/wiki/Station_Amay",
    "lat": 50.5461356041705,
    "lon": 5.32063364982605,
    "region": "WAL",
    "province": "WLG",
    "city": "61003",
    "telegraphcode": "NM",
    "opened": null,
    "platforms": null,
    "tracks": 2,
    "lines": ["125"]
  },
  {
    "name": "AMPSIN",
    "nameClean": "Ampsin",
    "url": "https://nl.wikipedia.org/wiki/Station_Ampsin",
    "lat": 50.539170798463985,
    "lon": 5.28967022895813,
    "region": "WAL",
    "province": "WLG",
    "city": "61003",
    "telegraphcode": "NA",
    "opened": null,
    "platforms": null,
    "tracks": 2,
    "lines": ["125"]
  },
  {
    "name": "ANDENNE",
    "nameClean": "Andenne",
    "url": "https://nl.wikipedia.org/wiki/Station_Andenne",
    "lat": 50.496681292705425,
    "lon": 5.09516716003418,
    "region": "WAL",
    "province": "WNA",
    "city": "92003",
    "telegraphcode": "NDN",
    "opened": 1850,
    "platforms": null,
    "tracks": 2,
    "lines": ["125"]
  },
  {
    "name": "ANGLEUR",
    "nameClean": "Angleur",
    "url": "https://nl.wikipedia.org/wiki/Station_Angleur",
    "lat": 50.61316394959347,
    "lon": 5.599835515022278,
    "region": "WAL",
    "province": "WLG",
    "city": "62063",
    "telegraphcode": "MGR",
    "opened": 1843,
    "platforms": 2,
    "tracks": 5,
    "lines": ["37", "37A", "43"]
  },
  {
    "name": "ANS",
    "nameClean": "Ans",
    "url": "https://nl.wikipedia.org/wiki/Station_Ans",
    "lat": 50.66135360375893,
    "lon": 5.509852766990662,
    "region": "WAL",
    "province": "WLG",
    "city": "62003",
    "telegraphcode": "ANS",
    "opened": 1838,
    "platforms": null,
    "tracks": 5,
    "lines": ["HSL 2", "36"]
  },
  {
    "name": "ANSEREMME",
    "nameClean": "Anseremme",
    "url": "https://nl.wikipedia.org/wiki/Station_Anseremme",
    "lat": 50.237447790244566,
    "lon": 4.904998540878296,
    "region": "WAL",
    "province": "WNA",
    "city": "91034",
    "telegraphcode": "MNS",
    "opened": 1896,
    "platforms": null,
    "tracks": 2,
    "lines": ["166"]
  },
  {
    "name": "ANTOING",
    "nameClean": "Antoing",
    "url": "https://nl.wikipedia.org/wiki/Station_Antoing",
    "lat": 50.5697441105418,
    "lon": 3.451160453259945,
    "region": "WAL",
    "province": "WHT",
    "city": "57003",
    "telegraphcode": "FNT",
    "opened": 1870,
    "platforms": null,
    "tracks": 2,
    "lines": ["78"]
  },
  {
    "name": "ANTWERPEN-BERCHEM",
    "nameClean": "Antwerpen-Berchem",
    "url": "https://nl.wikipedia.org/wiki/Station_Antwerpen-Berchem",
    "lat": 51.200320973839474,
    "lon": 4.432756039531341,
    "region": "VLG",
    "province": "VAN",
    "city": "11002",
    "telegraphcode": "FCV",
    "opened": 1865,
    "platforms": null,
    "tracks": 10,
    "lines": ["25", "27", "27A", "59"]
  },
  {
    "name": "ANTWERPEN-CAAL",
    "nameClean": "Antwerpen-Centraal",
    "url": "https://nl.wikipedia.org/wiki/Station_Antwerpen-Centraal",
    "lat": 51.217193366795016,
    "lon": 4.421444535255432,
    "region": "VLG",
    "province": "VAN",
    "city": "11002",
    "telegraphcode": "FN",
    "opened": 1836,
    "platforms": null,
    "tracks": 14,
    "lines": ["12", "25", "27"]
  },
  {
    "name": "ANTWERPEN-LUCHTBAL",
    "nameClean": "Antwerpen-Luchtbal",
    "url": "https://nl.wikipedia.org/wiki/Station_Antwerpen-Luchtbal",
    "lat": 51.24484212621014,
    "lon": 4.425022602081299,
    "region": "VLG",
    "province": "VAN",
    "city": "11002",
    "telegraphcode": "FNLB",
    "opened": 1932,
    "platforms": 6,
    "tracks": 4,
    "lines": ["HSL 4", "12", "25", "27A"]
  },
  {
    "name": "ANTWERPEN-NOORDERDOKKEN",
    "nameClean": "Antwerpen-Noorderdokken",
    "url": "https://nl.wikipedia.org/wiki/Station_Antwerpen-Noorderdokken",
    "lat": 51.26164294782822,
    "lon": 4.427908658981323,
    "region": "VLG",
    "province": "VAN",
    "city": "11002",
    "telegraphcode": "AND",
    "opened": 1974,
    "platforms": 4,
    "tracks": 3,
    "lines": ["12", "27A"]
  },
  {
    "name": "ANTWERPEN-ZUID",
    "nameClean": "Antwerpen-Zuid",
    "url": "https://nl.wikipedia.org/wiki/Station_Antwerpen-Zuid",
    "lat": 51.1972501556601,
    "lon": 4.391741752624512,
    "region": "VLG",
    "province": "VAN",
    "city": "11002",
    "telegraphcode": "FNZD",
    "opened": 1903,
    "platforms": null,
    "tracks": 4,
    "lines": ["52", "59"]
  },
  {
    "name": "ANZEGEM",
    "nameClean": "Anzegem",
    "url": "https://nl.wikipedia.org/wiki/Station_Anzegem",
    "lat": 50.8261667569915,
    "lon": 3.4949716553092003,
    "region": "VLG",
    "province": "VWV",
    "city": "34002",
    "telegraphcode": "FAN",
    "opened": 1868,
    "platforms": 2,
    "tracks": 2,
    "lines": ["89"]
  },
  {
    "name": "APPELTERRE",
    "nameClean": "Appelterre",
    "url": "https://nl.wikipedia.org/wiki/Station_Appelterre",
    "lat": 50.813558301875666,
    "lon": 3.9729201793670654,
    "region": "VLG",
    "province": "VOV",
    "city": "41048",
    "telegraphcode": "MAP",
    "opened": null,
    "platforms": null,
    "tracks": 2,
    "lines": ["90"]
  },
  {
    "name": "ARCADES",
    "nameClean": "Arcaden",
    "url": "https://nl.wikipedia.org/wiki/Station_Arcaden",
    "lat": 50.80995852949809,
    "lon": 4.398479461669922,
    "region": "BRU",
    "city": "21017",
    "telegraphcode": null,
    "opened": 2016,
    "platforms": 2,
    "tracks": 2,
    "lines": ["26"]
  },
  {
    "name": "ARCHENNES",
    "nameClean": "Archennes",
    "url": "https://nl.wikipedia.org/wiki/Station_Archennes",
    "lat": 50.75433317418784,
    "lon": 4.662207327783108,
    "region": "WAL",
    "province": "WBR",
    "city": "25037",
    "telegraphcode": null,
    "opened": 1938,
    "platforms": 2,
    "tracks": null,
    "lines": ["139"]
  },
  {
    "name": "ARLON",
    "nameClean": "Arlon",
    "url": "https://nl.wikipedia.org/wiki/Station_Arlon",
    "lat": 49.68040990618189,
    "lon": 5.80952525138855,
    "region": "WAL",
    "province": "WLX",
    "city": "81001",
    "telegraphcode": "LL",
    "opened": 1858,
    "platforms": null,
    "tracks": 5,
    "lines": ["162"]
  },
  {
    "name": "ASSE",
    "nameClean": "Asse",
    "url": "https://nl.wikipedia.org/wiki/Station_Asse",
    "lat": 50.90659498151951,
    "lon": 4.2080748081207275,
    "region": "VLG",
    "province": "VBR",
    "city": "23002",
    "telegraphcode": "LAS",
    "opened": 1879,
    "platforms": 2,
    "tracks": null,
    "lines": ["60"]
  },
  {
    "name": "ASSESSE",
    "nameClean": "Assesse",
    "url": "https://nl.wikipedia.org/wiki/Station_Assesse",
    "lat": 50.3681380540555,
    "lon": 5.022833347320557,
    "region": "WAL",
    "province": "WNA",
    "city": "92006",
    "telegraphcode": "MAS",
    "opened": null,
    "platforms": null,
    "tracks": null,
    "lines": ["162"]
  },
  {
    "name": "ATH",
    "nameClean": "Ath",
    "url": "https://nl.wikipedia.org/wiki/Station_Ath",
    "lat": 50.62720678721879,
    "lon": 3.777269124984741,
    "region": "WAL",
    "province": "WHT",
    "city": "51004",
    "telegraphcode": "ATH",
    "opened": 1847,
    "platforms": null,
    "tracks": 2,
    "lines": ["90", "94"]
  },
  {
    "name": "ATHUS",
    "nameClean": "Athus",
    "url": "https://nl.wikipedia.org/wiki/Station_Athus",
    "lat": 49.56394197238468,
    "lon": 5.829046368598938,
    "region": "WAL",
    "province": "WLX",
    "city": "81004",
    "telegraphcode": "MH",
    "opened": 1862,
    "platforms": 3,
    "tracks": 2,
    "lines": ["165", "167"]
  },
  {
    "name": "AUBANGE",
    "nameClean": "Aubange",
    "url": "https://nl.wikipedia.org/wiki/Station_Aubange",
    "lat": 49.56375678635053,
    "lon": 5.799131657107637,
    "region": "WAL",
    "province": "WLX",
    "city": "81004",
    "telegraphcode": "MAB",
    "opened": 1877,
    "platforms": null,
    "tracks": null,
    "lines": ["165"]
  },
  {
    "name": "AUVELAIS",
    "nameClean": "Auvelais",
    "url": "https://nl.wikipedia.org/wiki/Station_Auvelais",
    "lat": 50.448965103222555,
    "lon": 4.631370306015015,
    "region": "WAL",
    "province": "WNA",
    "city": "92137",
    "telegraphcode": "FVL",
    "opened": 1847,
    "platforms": null,
    "tracks": 4,
    "lines": ["130", "147"]
  },
  {
    "name": "AYE",
    "nameClean": "Aye",
    "url": "https://nl.wikipedia.org/wiki/Station_Aye",
    "lat": 50.224133179647716,
    "lon": 5.3010910749435425,
    "region": "WAL",
    "province": "WLX",
    "city": "83034",
    "telegraphcode": "AYE",
    "opened": 1991,
    "platforms": null,
    "tracks": 2,
    "lines": ["162"]
  },
  {
    "name": "AYWAILLE",
    "nameClean": "Aywaille",
    "url": "https://nl.wikipedia.org/wiki/Station_Aywaille",
    "lat": 50.47292139995581,
    "lon": 5.672823786735535,
    "region": "WAL",
    "province": "WLG",
    "city": "62009",
    "telegraphcode": "MWL",
    "opened": 1885,
    "platforms": null,
    "tracks": 7,
    "lines": ["42"]
  },
  {
    "name": "BAASRODE-ZUID",
    "nameClean": "Baasrode-Zuid",
    "url": "https://nl.wikipedia.org/wiki/Station_Baasrode-Zuid",
    "lat": 51.0193453247434,
    "lon": 4.153850935399532,
    "region": "VLG",
    "province": "VOV",
    "city": "42011",
    "telegraphcode": "FRA",
    "opened": null,
    "platforms": 2,
    "tracks": null,
    "lines": ["53"]
  },
  {
    "name": "BALEGEM-DORP",
    "nameClean": "Balegem-Dorp",
    "url": "https://nl.wikipedia.org/wiki/Station_Balegem-Dorp",
    "lat": 50.919075579832494,
    "lon": 3.7919622659683228,
    "region": "VLG",
    "province": "VOV",
    "city": "44052",
    "telegraphcode": "FGED",
    "opened": null,
    "platforms": null,
    "tracks": 2,
    "lines": ["122"]
  },
  {
    "name": "BALEGEM-ZUID",
    "nameClean": "Balegem-Zuid",
    "url": "https://nl.wikipedia.org/wiki/Station_Balegem-Zuid",
    "lat": 50.900217528508655,
    "lon": 3.806004173042311,
    "region": "VLG",
    "province": "VOV",
    "city": "44052",
    "telegraphcode": "FGE",
    "opened": null,
    "platforms": null,
    "tracks": null,
    "lines": ["122"]
  },
  {
    "name": "BALEN",
    "nameClean": "Balen",
    "url": "https://nl.wikipedia.org/wiki/Station_Balen",
    "lat": 51.168824396704736,
    "lon": 5.165526798566816,
    "region": "VLG",
    "province": "VAN",
    "city": "13003",
    "telegraphcode": "LNE",
    "opened": 1878,
    "platforms": null,
    "tracks": null,
    "lines": ["15"]
  },
  {
    "name": "BAMBRUGGE",
    "nameClean": "Bambrugge",
    "url": "https://nl.wikipedia.org/wiki/Station_Bambrugge",
    "lat": 50.91366434925854,
    "lon": 3.9357930421829224,
    "region": "VLG",
    "province": "VOV",
    "city": "41082",
    "telegraphcode": null,
    "opened": 1876,
    "platforms": null,
    "tracks": 1,
    "lines": ["82"]
  },
  {
    "name": "BARVAUX",
    "nameClean": "Barvaux",
    "url": "https://nl.wikipedia.org/wiki/Station_Barvaux",
    "lat": 50.349068257943905,
    "lon": 5.50136246914451,
    "region": "WAL",
    "province": "WLX",
    "city": "83012",
    "telegraphcode": "LBV",
    "opened": 1866,
    "platforms": null,
    "tracks": null,
    "lines": ["43"]
  },
  {
    "name": "BAS-OHA",
    "nameClean": "Bas-Oha",
    "url": "https://nl.wikipedia.org/wiki/Station_Bas-Oha",
    "lat": 50.523116805885934,
    "lon": 5.1919251680374146,
    "region": "WAL",
    "province": "WLG",
    "city": "61072",
    "telegraphcode": "NBE",
    "opened": null,
    "platforms": 2,
    "tracks": null,
    "lines": ["125"]
  },
  {
    "name": "BASSE-WAVRE",
    "nameClean": "Basse-Wavre",
    "url": "https://nl.wikipedia.org/wiki/Station_Basse-Wavre",
    "lat": 50.7245538774402,
    "lon": 4.622073769569397,
    "region": "WAL",
    "province": "WBR",
    "city": "25112",
    "telegraphcode": "BGWV",
    "opened": null,
    "platforms": 2,
    "tracks": null,
    "lines": ["139"]
  },
  {
    "name": "BEAURAING",
    "nameClean": "Beauraing",
    "url": "https://nl.wikipedia.org/wiki/Station_Beauraing",
    "lat": 50.11431560194288,
    "lon": 4.956774227321148,
    "region": "WAL",
    "province": "WNA",
    "city": "91013",
    "telegraphcode": "MBG",
    "opened": 1895,
    "platforms": null,
    "tracks": 3,
    "lines": ["166"]
  },
  {
    "name": "BEERNEM",
    "nameClean": "Beernem",
    "url": "https://nl.wikipedia.org/wiki/Station_Beernem",
    "lat": 51.12813045059407,
    "lon": 3.329136770416085,
    "region": "VLG",
    "province": "VWV",
    "city": "31003",
    "telegraphcode": "LBM",
    "opened": null,
    "platforms": 2,
    "tracks": null,
    "lines": ["50A"]
  },
  {
    "name": "BEERSEL",
    "nameClean": "Beersel",
    "url": "https://nl.wikipedia.org/wiki/Station_Beersel",
    "lat": 50.76698315572021,
    "lon": 4.302901136044284,
    "region": "VLG",
    "province": "VBR",
    "city": "23003",
    "telegraphcode": null,
    "opened": 1933,
    "platforms": 2,
    "tracks": null,
    "lines": ["26"]
  },
  {
    "name": "BEERVELDE",
    "nameClean": "Beervelde",
    "url": "https://nl.wikipedia.org/wiki/Station_Beervelde",
    "lat": 51.08698351062171,
    "lon": 3.8793540000915527,
    "region": "VLG",
    "province": "VOV",
    "city": "44034",
    "telegraphcode": "FBV",
    "opened": 1847,
    "platforms": null,
    "tracks": 2,
    "lines": ["59"]
  },
  {
    "name": "BEGIJNENDIJK",
    "nameClean": "Begijnendijk",
    "url": "https://nl.wikipedia.org/wiki/Station_Begijnendijk",
    "lat": 51.02207722063556,
    "lon": 4.80048009882762,
    "region": "VLG",
    "province": "VBR",
    "city": "24007",
    "telegraphcode": "GBD",
    "opened": 1864,
    "platforms": 2,
    "tracks": null,
    "lines": ["16"]
  },
  {
    "name": "BEIGNEE",
    "nameClean": "Beignée",
    "url": "https://nl.wikipedia.org/wiki/Station_Beignée",
    "lat": 50.33363257417771,
    "lon": 4.406654499471188,
    "region": "WAL",
    "province": "WHT",
    "city": "56086",
    "telegraphcode": null,
    "opened": null,
    "platforms": null,
    "tracks": null,
    "lines": ["132"]
  },
  {
    "name": "BELLEM",
    "nameClean": "Bellem",
    "url": "https://nl.wikipedia.org/wiki/Station_Bellem",
    "lat": 51.08371069117834,
    "lon": 3.4877666002633987,
    "region": "VLG",
    "province": "VOV",
    "city": "44084",
    "telegraphcode": "FEB",
    "opened": null,
    "platforms": null,
    "tracks": 2,
    "lines": ["50A"]
  },
  {
    "name": "BELSELE",
    "nameClean": "Belsele",
    "url": "https://nl.wikipedia.org/wiki/Station_Belsele",
    "lat": 51.150436764177414,
    "lon": 4.08742368221283,
    "region": "VLG",
    "province": "VOV",
    "city": "46021",
    "telegraphcode": "LLB",
    "opened": 1899,
    "platforms": null,
    "tracks": 2,
    "lines": ["59"]
  },
  {
    "name": "BERINGEN",
    "nameClean": "Beringen",
    "url": "https://nl.wikipedia.org/wiki/Station_Beringen",
    "lat": 51.05036163730931,
    "lon": 5.236503481864929,
    "region": "VLG",
    "province": "VLI",
    "city": "71004",
    "telegraphcode": "LBN",
    "opened": 1928,
    "platforms": null,
    "tracks": null,
    "lines": ["15"]
  },
  {
    "name": "BERLAAR",
    "nameClean": "Berlaar",
    "url": "https://nl.wikipedia.org/wiki/Station_Berlaar",
    "lat": 51.113665507888264,
    "lon": 4.638400585311842,
    "region": "VLG",
    "province": "VAN",
    "city": "12002",
    "telegraphcode": "GBL",
    "opened": 1864,
    "platforms": null,
    "tracks": null,
    "lines": ["16"]
  },
  {
    "name": "BERTRIX",
    "nameClean": "Bertrix",
    "url": "https://nl.wikipedia.org/wiki/Station_Bertrix",
    "lat": 49.852843726330875,
    "lon": 5.267526928467078,
    "region": "WAL",
    "province": "WLX",
    "city": "84009",
    "telegraphcode": "MBX",
    "opened": 1980,
    "platforms": null,
    "tracks": null,
    "lines": ["165", "166"]
  },
  {
    "name": "BERZEE",
    "nameClean": "Berzée",
    "url": "https://nl.wikipedia.org/wiki/Station_Berzée",
    "lat": 50.28582081171189,
    "lon": 4.405575857735926,
    "region": "WAL",
    "province": "WNA",
    "city": "93088",
    "telegraphcode": "LBZ",
    "opened": 1848,
    "platforms": null,
    "tracks": null,
    "lines": ["132"]
  },
  {
    "name": "BEUZET",
    "nameClean": "Beuzet",
    "url": "https://nl.wikipedia.org/wiki/Station_Beuzet",
    "lat": 50.534479287453806,
    "lon": 4.747681617736816,
    "region": "WAL",
    "province": "WNA",
    "city": "92142",
    "telegraphcode": "MBZ",
    "opened": 1855,
    "platforms": null,
    "tracks": null,
    "lines": ["161"]
  },
  {
    "name": "BEVEREN",
    "nameClean": "Beveren",
    "url": "https://nl.wikipedia.org/wiki/Station_Beveren",
    "lat": 51.208341986092634,
    "lon": 4.259524941444397,
    "region": "VLG",
    "province": "VOV",
    "city": "46003",
    "telegraphcode": "FBR",
    "opened": 1844,
    "platforms": null,
    "tracks": 2,
    "lines": ["59"]
  },
  {
    "name": "BEVERLO",
    "nameClean": "Beverlo",
    "url": "https://nl.wikipedia.org/wiki/Station_Beverlo",
    "lat": 51.0889816430478,
    "lon": 5.234534740447998,
    "region": "VLG",
    "province": "VLI",
    "city": "71004",
    "telegraphcode": null,
    "opened": 1986,
    "platforms": null,
    "tracks": 1,
    "lines": ["15"]
  },
  {
    "name": "BIERGES-WALIBI",
    "nameClean": "Bierges-Walibi",
    "url": "https://nl.wikipedia.org/wiki/Station_Bierges-Walibi",
    "lat": 50.7055503277508,
    "lon": 4.591775462064561,
    "region": "WAL",
    "province": "WBR",
    "city": "25112",
    "telegraphcode": null,
    "opened": null,
    "platforms": 2,
    "tracks": null,
    "lines": ["139"]
  },
  {
    "name": "BIERSET-AWANS",
    "nameClean": "Bierset-Awans",
    "url": "https://nl.wikipedia.org/wiki/Station_Bierset-Awans",
    "lat": 50.65817594812662,
    "lon": 5.457134856278685,
    "region": "WAL",
    "province": "WLG",
    "city": "62118",
    "telegraphcode": "FTI",
    "opened": null,
    "platforms": null,
    "tracks": null,
    "lines": ["36"]
  },
  {
    "name": "BILZEN",
    "nameClean": "Bilzen",
    "url": "https://nl.wikipedia.org/wiki/Station_Bilzen",
    "lat": 50.868514408442245,
    "lon": 5.5095174908638,
    "region": "VLG",
    "province": "VLI",
    "city": "73006",
    "telegraphcode": "FIE",
    "opened": 1863,
    "platforms": 2,
    "tracks": null,
    "lines": ["21C", "34"]
  },
  {
    "name": "BINCHE",
    "nameClean": "Binche",
    "url": "https://nl.wikipedia.org/wiki/Station_Binche",
    "lat": 50.4089218013922,
    "lon": 4.172898977994919,
    "region": "WAL",
    "province": "WHT",
    "city": "56011",
    "telegraphcode": "LBH",
    "opened": 1857,
    "platforms": null,
    "tracks": null,
    "lines": ["108"]
  },
  {
    "name": "BISSEGEM",
    "nameClean": "Bissegem",
    "url": "https://nl.wikipedia.org/wiki/Station_Bissegem",
    "lat": 50.82607145334919,
    "lon": 3.2252852618694305,
    "region": "VLG",
    "province": "VWV",
    "city": "34022",
    "telegraphcode": "MIM",
    "opened": 1853,
    "platforms": null,
    "tracks": null,
    "lines": ["69"]
  },
  {
    "name": "BLANKENBERGE",
    "nameClean": "Blankenberge",
    "url": "https://nl.wikipedia.org/wiki/Station_Blankenberge",
    "lat": 51.31258197539759,
    "lon": 3.1336650252342224,
    "region": "VLG",
    "province": "VWV",
    "city": "31004",
    "telegraphcode": "FBK",
    "opened": 1863,
    "platforms": null,
    "tracks": 7,
    "lines": ["51"]
  },
  {
    "name": "BLANMONT",
    "nameClean": "Blanmont",
    "url": "https://nl.wikipedia.org/wiki/Station_Blanmont",
    "lat": 50.620440303424196,
    "lon": 4.63590994477272,
    "region": "WAL",
    "province": "WBR",
    "city": "25117",
    "telegraphcode": "MBL",
    "opened": 1884,
    "platforms": null,
    "tracks": null,
    "lines": ["161"]
  },
  {
    "name": "BLATON",
    "nameClean": "Blaton",
    "url": "https://nl.wikipedia.org/wiki/Station_Blaton",
    "lat": 50.50535316261149,
    "lon": 3.6662100147174215,
    "region": "WAL",
    "province": "WHT",
    "city": "51009",
    "telegraphcode": "LLT",
    "opened": 1861,
    "platforms": null,
    "tracks": null,
    "lines": ["78"]
  },
  {
    "name": "BLERET",
    "nameClean": "Bleret",
    "url": "https://nl.wikipedia.org/wiki/Station_Bleret",
    "lat": 50.68547226017101,
    "lon": 5.285507027440417,
    "region": "WAL",
    "province": "WLG",
    "city": "64074",
    "telegraphcode": null,
    "opened": 1890,
    "platforms": 2,
    "tracks": null,
    "lines": ["36"]
  },
  {
    "name": "BOCKSTAEL",
    "nameClean": "Bockstael",
    "url": "https://nl.wikipedia.org/wiki/Station_Bockstael",
    "lat": 50.87957062958298,
    "lon": 4.348368856175966,
    "region": "BRU",
    "city": "21004",
    "telegraphcode": "FBL",
    "opened": 1983,
    "platforms": null,
    "tracks": 2,
    "lines": ["50"]
  },
  {
    "name": "BOECHOUT",
    "nameClean": "Boechout",
    "url": "https://nl.wikipedia.org/wiki/Station_Boechout",
    "lat": 51.163644286201425,
    "lon": 4.494131020369991,
    "region": "VLG",
    "province": "VAN",
    "city": "11004",
    "telegraphcode": "GBC",
    "opened": 1864,
    "platforms": null,
    "tracks": 2,
    "lines": ["15"]
  },
  {
    "name": "BOKRIJK",
    "nameClean": "Bokrijk",
    "url": "https://nl.wikipedia.org/wiki/Station_Bokrijk",
    "lat": 50.95585331965915,
    "lon": 5.408661654544403,
    "region": "VLG",
    "province": "VLI",
    "city": "71016",
    "telegraphcode": "FKY",
    "opened": 1874,
    "platforms": 2,
    "tracks": null,
    "lines": ["21A"]
  },
  {
    "name": "BOMAL",
    "nameClean": "Bomal",
    "url": "https://nl.wikipedia.org/wiki/Station_Bomal",
    "lat": 50.37685082202263,
    "lon": 5.519549402158191,
    "region": "WAL",
    "province": "WLX",
    "city": "83012",
    "telegraphcode": "MBM",
    "opened": 1866,
    "platforms": 3,
    "tracks": null,
    "lines": ["43"]
  },
  {
    "name": "BOOISCHOT",
    "nameClean": "Booischot",
    "url": "https://nl.wikipedia.org/wiki/Station_Booischot",
    "lat": 51.03733710543733,
    "lon": 4.77356618096826,
    "region": "VLG",
    "province": "VAN",
    "city": "12014",
    "telegraphcode": "GB",
    "opened": 1864,
    "platforms": 2,
    "tracks": null,
    "lines": ["16"]
  },
  {
    "name": "BOOM",
    "nameClean": "Boom",
    "url": "https://nl.wikipedia.org/wiki/Station_Boom",
    "lat": 51.09083,
    "lon": 4.36056,
    "region": "VLG",
    "province": "VAN",
    "city": "11005",
    "telegraphcode": "FMB",
    "opened": 1875,
    "platforms": null,
    "tracks": 4,
    "lines": ["52"]
  },
  {
    "name": "BOONDAEL/BOONDAAL",
    "nameClean": "Boondaal",
    "url": "https://nl.wikipedia.org/wiki/Station_Boondaal",
    "lat": 50.801737118003864,
    "lon": 4.393571712298694,
    "region": "BRU",
    "city": "21009",
    "telegraphcode": null,
    "opened": 1973,
    "platforms": null,
    "tracks": 2,
    "lines": ["26"]
  },
  {
    "name": "BOORTMEERBEEK",
    "nameClean": "Boortmeerbeek",
    "url": "https://nl.wikipedia.org/wiki/Station_Boortmeerbeek",
    "lat": 50.98196188480831,
    "lon": 4.573525069500192,
    "region": "VLG",
    "province": "VBR",
    "city": "24014",
    "telegraphcode": "FOB",
    "opened": null,
    "platforms": null,
    "tracks": null,
    "lines": ["53"]
  },
  {
    "name": "BORDET",
    "nameClean": "Bordet",
    "url": "https://nl.wikipedia.org/wiki/Station_Bordet",
    "lat": 50.87733738131479,
    "lon": 4.409503867885974,
    "region": "BRU",
    "city": "21006",
    "telegraphcode": null,
    "opened": 1926,
    "platforms": null,
    "tracks": 2,
    "lines": ["26"]
  },
  {
    "name": "BORNEM",
    "nameClean": "Bornem",
    "url": "https://nl.wikipedia.org/wiki/Station_Bornem",
    "lat": 51.09937441420236,
    "lon": 4.239899218082428,
    "region": "VLG",
    "province": "VAN",
    "city": "12007",
    "telegraphcode": "LOB",
    "opened": 1870,
    "platforms": 1,
    "tracks": null,
    "lines": ["54"]
  },
  {
    "name": "BOITSFORT/BOSVOORDE",
    "nameClean": "Bosvoorde",
    "url": "https://nl.wikipedia.org/wiki/Station_Bosvoorde",
    "lat": 50.79463742081297,
    "lon": 4.408168941736221,
    "region": "BRU",
    "city": "21017",
    "telegraphcode": "MBR",
    "opened": 1854,
    "platforms": 2,
    "tracks": null,
    "lines": ["161"]
  },
  {
    "name": "BOUSSU",
    "nameClean": "Boussu",
    "url": "https://nl.wikipedia.org/wiki/Station_Boussu",
    "lat": 50.436220592862014,
    "lon": 3.7969178223628433,
    "region": "WAL",
    "province": "WHT",
    "city": "53014",
    "telegraphcode": "FSB",
    "opened": 1842,
    "platforms": null,
    "tracks": null,
    "lines": ["97"]
  },
  {
    "name": "BOUWEL",
    "nameClean": "Bouwel",
    "url": "https://nl.wikipedia.org/wiki/Station_Bouwel",
    "lat": 51.16580624020985,
    "lon": 4.747138367817229,
    "region": "VLG",
    "province": "VAN",
    "city": "13010",
    "telegraphcode": "FOW",
    "opened": 1855,
    "platforms": null,
    "tracks": null,
    "lines": ["15"]
  },
  {
    "name": "BRACQUEGNIES",
    "nameClean": "Bracquegnies",
    "url": "https://nl.wikipedia.org/wiki/Station_Bracquegnies",
    "lat": 50.47433780403228,
    "lon": 4.126593771023863,
    "region": "WAL",
    "province": "WHT",
    "city": "55022",
    "telegraphcode": "LBQ",
    "opened": 1848,
    "platforms": null,
    "tracks": null,
    "lines": ["118"]
  },
  {
    "name": "BRAINE-l'ALLEUD",
    "nameClean": "Braine-l'Alleud",
    "url": "https://nl.wikipedia.org/wiki/Station_Braine-l'Alleud",
    "lat": 50.68491753657014,
    "lon": 4.375700801610947,
    "region": "WAL",
    "province": "WBR",
    "city": "25014",
    "telegraphcode": "FBD",
    "opened": 1874,
    "platforms": 4,
    "tracks": null,
    "lines": ["124"]
  },
  {
    "name": "BRAINE-LE-COMTE",
    "nameClean": "Braine-le-Comte",
    "url": "https://nl.wikipedia.org/wiki/Station_Braine-le-Comte",
    "lat": 50.60577156692008,
    "lon": 4.1381871700286865,
    "region": "WAL",
    "province": "WHT",
    "city": "55004",
    "telegraphcode": "FBC",
    "opened": 1841,
    "platforms": null,
    "tracks": 9,
    "lines": ["96", "117"]
  },
  {
    "name": "BRESSOUX",
    "nameClean": "Bressoux",
    "url": "https://nl.wikipedia.org/wiki/Station_Bressoux",
    "lat": 50.6443433025596,
    "lon": 5.61263480676007,
    "region": "WAL",
    "province": "WLG",
    "city": "62063",
    "telegraphcode": "FBX",
    "opened": 1861,
    "platforms": 2,
    "tracks": null,
    "lines": ["40"]
  },
  {
    "name": "BRUGELETTE",
    "nameClean": "Brugelette",
    "url": "https://nl.wikipedia.org/wiki/Station_Brugelette",
    "lat": 50.59418750904078,
    "lon": 3.8526618348644206,
    "region": "WAL",
    "province": "WHT",
    "city": "51012",
    "telegraphcode": "FBG",
    "opened": 1847,
    "platforms": null,
    "tracks": null,
    "lines": ["90"]
  },
  {
    "name": "BRUGGE",
    "nameClean": "Brugge",
    "url": "https://nl.wikipedia.org/wiki/Station_Brugge",
    "lat": 51.197666147503604,
    "lon": 3.2178501784801483,
    "region": "VLG",
    "province": "VWV",
    "city": "31005",
    "telegraphcode": "FR",
    "opened": 1838,
    "platforms": 10,
    "tracks": 12,
    "lines": ["50A", "51", "66"]
  },
  {
    "name": "BRUGGE-SINT-PIETERS",
    "nameClean": "Brugge-Sint-Pieters",
    "url": "https://nl.wikipedia.org/wiki/Station_Brugge-Sint-Pieters",
    "lat": 51.22275164692689,
    "lon": 3.201855697805172,
    "region": "VLG",
    "province": "VWV",
    "city": "31005",
    "telegraphcode": "FRSP",
    "opened": 1863,
    "platforms": null,
    "tracks": 2,
    "lines": ["51"]
  },
  {
    "name": "BRU.-CENT.",
    "nameClean": "Brussel-Centraal",
    "url": "https://nl.wikipedia.org/wiki/Station_Brussel-Centraal",
    "lat": 50.84548819839426,
    "lon": 4.3570151925086975,
    "region": "BRU",
    "city": "21004",
    "telegraphcode": "FBCL",
    "opened": 1952,
    "platforms": 6,
    "tracks": null,
    "lines": ["0"]
  },
  {
    "name": "BRU.-CONG.",
    "nameClean": "Brussel-Congres",
    "url": "https://nl.wikipedia.org/wiki/Station_Brussel-Congres",
    "lat": 50.85215366860351,
    "lon": 4.361896812915802,
    "region": "BRU",
    "city": "21004",
    "telegraphcode": "FBCO",
    "opened": 1952,
    "platforms": 4,
    "tracks": null,
    "lines": ["0"]
  },
  {
    "name": "BRU.-CHAP./KAP.",
    "nameClean": "Brussel-Kapellekerk",
    "url": "https://nl.wikipedia.org/wiki/Station_Brussel-Kapellekerk",
    "lat": 50.84124981205341,
    "lon": 4.3483637273311615,
    "region": "BRU",
    "city": "21004",
    "telegraphcode": "FBCK",
    "opened": 1952,
    "platforms": 4,
    "tracks": null,
    "lines": ["0"]
  },
  {
    "name": "BRU.-LUXEMBG",
    "nameClean": "Brussel-Luxemburg",
    "url": "https://nl.wikipedia.org/wiki/Station_Brussel-Luxemburg",
    "lat": 50.83803075232638,
    "lon": 4.373139292001724,
    "region": "BRU",
    "city": "21009",
    "telegraphcode": "LX",
    "opened": 1854,
    "platforms": 6,
    "tracks": null,
    "lines": ["161"]
  },
  {
    "name": "BRU.-NOORD/NORD",
    "nameClean": "Brussel-Noord",
    "url": "https://nl.wikipedia.org/wiki/Station_Brussel-Noord",
    "lat": 50.86073186832828,
    "lon": 4.360960452920381,
    "region": "BRU",
    "city": "21015",
    "telegraphcode": "FBN",
    "opened": 1952,
    "platforms": 6,
    "tracks": 12,
    "lines": ["0", "25", "27", "36", "36N", "50"]
  },
  {
    "name": "BRU.-SCHUMAN",
    "nameClean": "Brussel-Schuman",
    "url": "https://nl.wikipedia.org/wiki/Station_Brussel-Schuman",
    "lat": 50.84232278261472,
    "lon": 4.383094310760498,
    "region": "BRU",
    "city": "21004",
    "telegraphcode": "FBSM",
    "opened": 1969,
    "platforms": 4,
    "tracks": null,
    "lines": ["161"]
  },
  {
    "name": "BRU.-WEST/OUEST",
    "nameClean": "Brussel-West",
    "url": "https://nl.wikipedia.org/wiki/Station_Brussel-West",
    "lat": 50.849100473102645,
    "lon": 4.32112455368042,
    "region": "BRU",
    "city": "21012",
    "telegraphcode": "FBOW",
    "opened": 1871,
    "platforms": null,
    "tracks": null,
    "lines": ["28"]
  },
  {
    "name": "BRU.-MIDI/ZUID",
    "nameClean": "Brussel-Zuid",
    "url": "https://nl.wikipedia.org/wiki/Station_Brussel-Zuid",
    "lat": 50.83648684459458,
    "lon": 4.335015445242107,
    "region": "BRU",
    "city": "21013",
    "telegraphcode": "FBMZ",
    "opened": 1869,
    "platforms": 11,
    "tracks": 22,
    "lines": ["0", "28", "50A", "96", "96A", "96N", "124"]
  },
  {
    "name": "BRU. AIRPORT - ZAVENTEM",
    "nameClean": "Brussels Airport-Zaventem",
    "url": "https://nl.wikipedia.org/wiki/Station_Brussels Airport-Zaventem",
    "lat": 50.897222,
    "lon": 4.484722,
    "region": "VLG",
    "province": "VBR",
    "city": "23094",
    "telegraphcode": "FBNL",
    "opened": 1958,
    "platforms": null,
    "tracks": 3,
    "lines": ["36C"]
  },
  {
    "name": "BUDA",
    "nameClean": "Buda",
    "url": "https://nl.wikipedia.org/wiki/Station_Buda",
    "lat": 50.90788066668594,
    "lon": 4.417325806857093,
    "region": "VLG",
    "province": "VBR",
    "city": "23088",
    "telegraphcode": "BUDA",
    "opened": 1939,
    "platforms": 2,
    "tracks": null,
    "lines": ["25"]
  },
  {
    "name": "BUGGENHOUT",
    "nameClean": "Buggenhout",
    "url": "https://nl.wikipedia.org/wiki/Station_Buggenhout",
    "lat": 51.016370159403884,
    "lon": 4.201307594776154,
    "region": "VLG",
    "province": "VOV",
    "city": "42004",
    "telegraphcode": "FGN",
    "opened": 1988,
    "platforms": 2,
    "tracks": null,
    "lines": ["53"]
  },
  {
    "name": "BUIZINGEN",
    "nameClean": "Buizingen",
    "url": "https://nl.wikipedia.org/wiki/Station_Buizingen",
    "lat": 50.75127361041497,
    "lon": 4.258210496670699,
    "region": "VLG",
    "province": "VBR",
    "city": "23027",
    "telegraphcode": "FGU",
    "opened": null,
    "platforms": 2,
    "tracks": null,
    "lines": ["96"]
  },
  {
    "name": "BURST",
    "nameClean": "Burst",
    "url": "https://nl.wikipedia.org/wiki/Station_Burst",
    "lat": 50.90709562278857,
    "lon": 3.92124742269516,
    "region": "VLG",
    "province": "VOV",
    "city": "41082",
    "telegraphcode": "FRU",
    "opened": 1868,
    "platforms": 2,
    "tracks": 3,
    "lines": ["89"]
  },
  {
    "name": "CALLENELLE",
    "nameClean": "Callenelle",
    "url": "https://nl.wikipedia.org/wiki/Station_Callenelle",
    "lat": 50.53092923592018,
    "lon": 3.51959820311572,
    "region": "WAL",
    "province": "WHT",
    "city": "57064",
    "telegraphcode": "FCA",
    "opened": 1870,
    "platforms": null,
    "tracks": null,
    "lines": ["78"]
  },
  {
    "name": "CAMBRON-CASTEAU",
    "nameClean": "Cambron-Casteau",
    "url": "https://nl.wikipedia.org/wiki/Station_Cambron-Casteau",
    "lat": 50.58638296150906,
    "lon": 3.875262290239334,
    "region": "WAL",
    "province": "WHT",
    "city": "51012",
    "telegraphcode": "FUC",
    "opened": 1847,
    "platforms": null,
    "tracks": null,
    "lines": ["90"]
  },
  {
    "name": "CARLSBOURG",
    "nameClean": "Carlsbourg",
    "url": "https://nl.wikipedia.org/wiki/Station_Carlsbourg",
    "lat": 49.90748235420399,
    "lon": 5.08725292429915,
    "region": "WAL",
    "province": "WLX",
    "city": "84050",
    "telegraphcode": "MCL",
    "opened": 1888,
    "platforms": null,
    "tracks": null,
    "lines": ["166"]
  },
  {
    "name": "CARNIERES",
    "nameClean": "Carnières",
    "url": "https://nl.wikipedia.org/wiki/Station_Carnières",
    "lat": 50.448001868341734,
    "lon": 4.264093759593948,
    "region": "WAL",
    "province": "WHT",
    "city": "56087",
    "telegraphcode": "LNS",
    "opened": 1871,
    "platforms": null,
    "tracks": null,
    "lines": ["112"]
  },
  {
    "name": "CHAUDFONTAINE",
    "nameClean": "Chaudfontaine",
    "url": "https://nl.wikipedia.org/wiki/Station_Chaudfontaine",
    "lat": 50.586986,
    "lon": 5.643737,
    "region": "WAL",
    "province": "WLG",
    "city": "62022",
    "telegraphcode": "FCF",
    "opened": 1843,
    "platforms": null,
    "tracks": null,
    "lines": ["37"]
  },
  {
    "name": "CHAPELLE-DIEU",
    "nameClean": "Chapelle-Dieu",
    "url": "https://nl.wikipedia.org/wiki/Station_Chapelle-Dieu",
    "lat": 50.55808031667531,
    "lon": 4.698833098788327,
    "region": "WAL",
    "province": "WNA",
    "city": "92142",
    "telegraphcode": null,
    "opened": null,
    "platforms": null,
    "tracks": null,
    "lines": ["144"]
  },
  {
    "name": "CHAPOIS",
    "nameClean": "Chapois",
    "url": "https://nl.wikipedia.org/wiki/Station_Chapois",
    "lat": 50.26175966257113,
    "lon": 5.125355422496796,
    "region": "WAL",
    "province": "WNA",
    "city": "91030",
    "telegraphcode": null,
    "opened": null,
    "platforms": null,
    "tracks": null,
    "lines": ["162"]
  },
  {
    "name": "CHARLEROI-OUEST",
    "nameClean": "Charleroi-Ouest",
    "url": "https://nl.wikipedia.org/wiki/Station_Charleroi-Ouest",
    "lat": 50.411132301575535,
    "lon": 4.436699514467705,
    "region": "WAL",
    "province": "WHT",
    "city": "52011",
    "telegraphcode": "FCRO",
    "opened": 1855,
    "platforms": null,
    "tracks": null,
    "lines": ["140"]
  },
  {
    "name": "CHARLEROI-SUD",
    "nameClean": "Charleroi-Sud",
    "url": "https://nl.wikipedia.org/wiki/Station_Charleroi-Sud",
    "lat": 50.40476525545753,
    "lon": 4.438709914684296,
    "region": "WAL",
    "province": "WHT",
    "city": "52011",
    "telegraphcode": "FCR",
    "opened": 1858,
    "platforms": 12,
    "tracks": null,
    "lines": ["124", "124A", "130", "130A", "130C"]
  },
  {
    "name": "CHASTRE",
    "nameClean": "Chastre",
    "url": "https://nl.wikipedia.org/wiki/Station_Chastre",
    "lat": 50.60810437157076,
    "lon": 4.649633610347109,
    "region": "WAL",
    "province": "WBR",
    "city": "25117",
    "telegraphcode": "MC",
    "opened": 1855,
    "platforms": null,
    "tracks": null,
    "lines": ["161"]
  },
  {
    "name": "CHATEAU-DE-SEILLES",
    "nameClean": "Château-de-Seilles",
    "url": "https://nl.wikipedia.org/wiki/Station_Château-de-Seilles",
    "lat": 50.49727374563366,
    "lon": 5.08217707513586,
    "region": "WAL",
    "province": "WNA",
    "city": "92003",
    "telegraphcode": null,
    "opened": null,
    "platforms": null,
    "tracks": null,
    "lines": ["125"]
  },
  {
    "name": "CHATELET",
    "nameClean": "Châtelet",
    "url": "https://nl.wikipedia.org/wiki/Station_Châtelet",
    "lat": 50.409519226823186,
    "lon": 4.521040320396423,
    "region": "WAL",
    "province": "WHT",
    "city": "52012",
    "telegraphcode": "FCL",
    "opened": 1843,
    "platforms": null,
    "tracks": null,
    "lines": ["130", "130C", "138"]
  },
  {
    "name": "CHENEE",
    "nameClean": "Chênée",
    "url": "https://nl.wikipedia.org/wiki/Station_Chênée",
    "lat": 50.60753338453799,
    "lon": 5.617406666278839,
    "region": "WAL",
    "province": "WLG",
    "city": "62063",
    "telegraphcode": "FCH",
    "opened": 1847,
    "platforms": null,
    "tracks": null,
    "lines": ["37"]
  },
  {
    "name": "CINEY",
    "nameClean": "Ciney",
    "url": "https://nl.wikipedia.org/wiki/Station_Ciney",
    "lat": 50.291460757622936,
    "lon": 5.091420114040375,
    "region": "WAL",
    "province": "WNA",
    "city": "91030",
    "telegraphcode": "LC",
    "opened": 1858,
    "platforms": null,
    "tracks": 5,
    "lines": ["162"]
  },
  {
    "name": "COMBLAIN-LA-TOUR",
    "nameClean": "Comblain-la-Tour",
    "url": "https://nl.wikipedia.org/wiki/Station_Comblain-la-Tour",
    "lat": 50.45647260106536,
    "lon": 5.567054897546768,
    "region": "WAL",
    "province": "WLG",
    "city": "61024",
    "telegraphcode": "MCT",
    "opened": 1866,
    "platforms": null,
    "tracks": null,
    "lines": ["43"]
  },
  {
    "name": "COO",
    "nameClean": "Coo",
    "url": "https://nl.wikipedia.org/wiki/Station_Coo",
    "lat": 50.39077921653096,
    "lon": 5.880947113037109,
    "region": "WAL",
    "province": "WLG",
    "city": "63073",
    "telegraphcode": null,
    "opened": 1891,
    "platforms": null,
    "tracks": null,
    "lines": ["42"]
  },
  {
    "name": "COUILLET",
    "nameClean": "Couillet",
    "url": "https://nl.wikipedia.org/wiki/Station_Couillet",
    "lat": 50.39263799025592,
    "lon": 4.469170421361923,
    "region": "WAL",
    "province": "WHT",
    "city": "52011",
    "telegraphcode": "LCL",
    "opened": 1843,
    "platforms": null,
    "tracks": null,
    "lines": ["130"]
  },
  {
    "name": "COUR-SUR-HEURE",
    "nameClean": "Cour-sur-Heure",
    "url": "https://nl.wikipedia.org/wiki/Station_Cour-sur-Heure",
    "lat": 50.3004909858288,
    "lon": 4.391710038625661,
    "region": "WAL",
    "province": "WHT",
    "city": "56086",
    "telegraphcode": "LUH",
    "opened": 1848,
    "platforms": null,
    "tracks": null,
    "lines": ["132"]
  },
  {
    "name": "COURCELLES-MOTTE",
    "nameClean": "Courcelles-Motte",
    "url": "https://nl.wikipedia.org/wiki/Station_Courcelles-Motte",
    "lat": 50.46249601130737,
    "lon": 4.400331526994705,
    "region": "WAL",
    "province": "WHT",
    "city": "52015",
    "telegraphcode": "LCCM",
    "opened": null,
    "platforms": null,
    "tracks": null,
    "lines": ["124"]
  },
  {
    "name": "COURRIERE",
    "nameClean": "Courrière",
    "url": "https://nl.wikipedia.org/wiki/Station_Courrière",
    "lat": 50.388852043440636,
    "lon": 4.995090175870359,
    "region": "WAL",
    "province": "WNA",
    "city": "92006",
    "telegraphcode": "MRR",
    "opened": 1858,
    "platforms": null,
    "tracks": null,
    "lines": ["162"]
  },
  {
    "name": "COURT-SAINT-ETIENNE",
    "nameClean": "Court-Saint-Étienne",
    "url": "https://nl.wikipedia.org/wiki/Station_Court-Saint-Étienne",
    "lat": 50.64574900509717,
    "lon": 4.5657909710980675,
    "region": "WAL",
    "province": "WBR",
    "city": "25023",
    "telegraphcode": "LCN",
    "opened": 1855,
    "platforms": null,
    "tracks": null,
    "lines": ["140"]
  },
  {
    "name": "COUVIN",
    "nameClean": "Couvin",
    "url": "https://nl.wikipedia.org/wiki/Station_Couvin",
    "lat": 50.056174075455004,
    "lon": 4.491629152304995,
    "region": "WAL",
    "province": "WNA",
    "city": "93014",
    "telegraphcode": "LCV",
    "opened": 1854,
    "platforms": null,
    "tracks": null,
    "lines": ["134"]
  },
  {
    "name": "CEROUX-MOUSTY",
    "nameClean": "Céroux-Mousty",
    "url": "https://nl.wikipedia.org/wiki/Station_Céroux-Mousty",
    "lat": 50.66022524722763,
    "lon": 4.569084796006678,
    "region": "WAL",
    "province": "WBR",
    "city": "25121",
    "telegraphcode": "MCM",
    "opened": null,
    "platforms": null,
    "tracks": null,
    "lines": ["140"]
  },
  {
    "name": "DAVE-SAINT-MARTIN",
    "nameClean": "Dave-Saint-Martin",
    "url": "https://nl.wikipedia.org/wiki/Station_Dave-Saint-Martin",
    "lat": 50.42891268179296,
    "lon": 4.884557855243884,
    "region": "WAL",
    "province": "WNA",
    "city": "92094",
    "telegraphcode": "MDT",
    "opened": null,
    "platforms": null,
    "tracks": null,
    "lines": ["162"]
  },
  {
    "name": "DE HOEK",
    "nameClean": "De Hoek",
    "url": "https://nl.wikipedia.org/wiki/Station_De Hoek",
    "lat": 50.73865933942295,
    "lon": 4.37106192111969,
    "region": "VLG",
    "province": "VBR",
    "city": "23101",
    "telegraphcode": null,
    "opened": null,
    "platforms": 2,
    "tracks": null,
    "lines": ["124"]
  },
  {
    "name": "DE PANNE",
    "nameClean": "De Panne",
    "url": "https://nl.wikipedia.org/wiki/Station_De Panne",
    "lat": 51.07741874130951,
    "lon": 2.602386474609375,
    "region": "VLG",
    "province": "VWV",
    "city": "38008",
    "telegraphcode": "FDK",
    "opened": 1870,
    "platforms": null,
    "tracks": 3,
    "lines": ["73"]
  },
  {
    "name": "DE PINTE",
    "nameClean": "De Pinte",
    "url": "https://nl.wikipedia.org/wiki/Station_De Pinte",
    "lat": 50.99643631371482,
    "lon": 3.6495802134697897,
    "region": "VLG",
    "province": "VOV",
    "city": "44012",
    "telegraphcode": "FPT",
    "opened": 1839,
    "platforms": 4,
    "tracks": 3,
    "lines": ["75", "86"]
  },
  {
    "name": "DEINZE",
    "nameClean": "Deinze",
    "url": "https://nl.wikipedia.org/wiki/Station_Deinze",
    "lat": 50.97817509057112,
    "lon": 3.534899353981018,
    "region": "VLG",
    "province": "VOV",
    "city": "44083",
    "telegraphcode": "FD",
    "opened": null,
    "platforms": 3,
    "tracks": 5,
    "lines": ["73", "75"]
  },
  {
    "name": "DELTA",
    "nameClean": "Delta",
    "url": "https://nl.wikipedia.org/wiki/Station_Delta",
    "lat": 50.81874731599824,
    "lon": 4.403991401195526,
    "region": "BRU",
    "city": "21002",
    "telegraphcode": null,
    "opened": null,
    "platforms": 1976,
    "tracks": null,
    "lines": ["26"]
  },
  {
    "name": "DENDERLEEUW",
    "nameClean": "Denderleeuw",
    "url": "https://nl.wikipedia.org/wiki/Station_Denderleeuw",
    "lat": 50.89168659758202,
    "lon": 4.07256156206131,
    "region": "VLG",
    "province": "VOV",
    "city": "41011",
    "telegraphcode": "FDD",
    "opened": 1855,
    "platforms": 5,
    "tracks": 9,
    "lines": ["50", "89", "90"]
  },
  {
    "name": "DENDERMONDE",
    "nameClean": "Dendermonde",
    "url": "https://nl.wikipedia.org/wiki/Station_Dendermonde",
    "lat": 51.023241477572626,
    "lon": 4.101356416940689,
    "region": "VLG",
    "province": "VOV",
    "city": "42006",
    "telegraphcode": "FDR",
    "opened": 1837,
    "platforms": 5,
    "tracks": 9,
    "lines": ["53", "57", "60"]
  },
  {
    "name": "DIEGEM",
    "nameClean": "Diegem",
    "url": "https://nl.wikipedia.org/wiki/Station_Diegem",
    "lat": 50.88946422558886,
    "lon": 4.446981847286224,
    "region": "VLG",
    "province": "VBR",
    "city": "23047",
    "telegraphcode": "FDG",
    "opened": 1866,
    "platforms": null,
    "tracks": null,
    "lines": ["36"]
  },
  {
    "name": "DIEPENBEEK",
    "nameClean": "Diepenbeek",
    "url": "https://nl.wikipedia.org/wiki/Station_Diepenbeek",
    "lat": 50.91077246495721,
    "lon": 5.419369786977768,
    "region": "VLG",
    "province": "VLI",
    "city": "71011",
    "telegraphcode": "GDP",
    "opened": 1856,
    "platforms": null,
    "tracks": 2,
    "lines": ["34"]
  },
  {
    "name": "VIVIER D'OIE/DIESDELLE",
    "nameClean": "Diesdelle",
    "url": "https://nl.wikipedia.org/wiki/Station_Diesdelle",
    "lat": 50.79604638509796,
    "lon": 4.372042204396735,
    "region": "BRU",
    "city": "21016",
    "telegraphcode": null,
    "opened": 2007,
    "platforms": 2,
    "tracks": null,
    "lines": ["26"]
  },
  {
    "name": "DIEST",
    "nameClean": "Diest",
    "url": "https://nl.wikipedia.org/wiki/Station_Diest",
    "lat": 50.99301103334917,
    "lon": 5.0511521100997925,
    "region": "VLG",
    "province": "VBR",
    "city": "24020",
    "telegraphcode": "FDT",
    "opened": 1865,
    "platforms": 3,
    "tracks": null,
    "lines": ["35"]
  },
  {
    "name": "DIKSMUIDE",
    "nameClean": "Diksmuide",
    "url": "https://nl.wikipedia.org/wiki/Station_Diksmuide",
    "lat": 51.03279635820946,
    "lon": 2.8691375255584717,
    "region": "VLG",
    "province": "VWV",
    "city": "32003",
    "telegraphcode": "FIK",
    "opened": 1858,
    "platforms": 2,
    "tracks": null,
    "lines": ["73"]
  },
  {
    "name": "DILBEEK",
    "nameClean": "Dilbeek",
    "url": "https://nl.wikipedia.org/wiki/Station_Dilbeek",
    "lat": 50.866148733182435,
    "lon": 4.244421422481537,
    "region": "VLG",
    "province": "VBR",
    "city": "23016",
    "telegraphcode": "FKB",
    "opened": 1864,
    "platforms": 2,
    "tracks": null,
    "lines": ["50"]
  },
  {
    "name": "DINANT",
    "nameClean": "Dinant",
    "url": "https://nl.wikipedia.org/wiki/Station_Dinant",
    "lat": 50.2611723790763,
    "lon": 4.9080535769462585,
    "region": "WAL",
    "province": "WNA",
    "city": "91034",
    "telegraphcode": "NDT",
    "opened": 1862,
    "platforms": 3,
    "tracks": null,
    "lines": ["154"]
  },
  {
    "name": "DOLHAIN-GILEPPE",
    "nameClean": "Dolhain-Gileppe",
    "url": "https://nl.wikipedia.org/wiki/Station_Dolhain-Gileppe",
    "lat": 50.625489601650706,
    "lon": 5.938468030839431,
    "region": "WAL",
    "province": "WLG",
    "city": "63046",
    "telegraphcode": "GDL",
    "opened": null,
    "platforms": 2,
    "tracks": null,
    "lines": ["37"]
  },
  {
    "name": "DRONGEN",
    "nameClean": "Drongen",
    "url": "https://nl.wikipedia.org/wiki/Station_Drongen",
    "lat": 51.04726747444076,
    "lon": 3.6551347374916077,
    "region": "VLG",
    "province": "VOV",
    "city": "44021",
    "telegraphcode": "FDO",
    "opened": null,
    "platforms": null,
    "tracks": 4,
    "lines": ["50A"]
  },
  {
    "name": "DUFFEL",
    "nameClean": "Duffel",
    "url": "https://nl.wikipedia.org/wiki/Station_Duffel",
    "lat": 51.09120122098903,
    "lon": 4.493203014135361,
    "region": "VLG",
    "province": "VAN",
    "city": "12009",
    "telegraphcode": "FDF",
    "opened": 1836,
    "platforms": 4,
    "tracks": null,
    "lines": ["25", "27"]
  },
  {
    "name": "DUINBERGEN",
    "nameClean": "Duinbergen",
    "url": "https://nl.wikipedia.org/wiki/Station_Duinbergen",
    "lat": 51.33825478558103,
    "lon": 3.2636042946335238,
    "region": "VLG",
    "province": "VWV",
    "city": "31043",
    "telegraphcode": null,
    "opened": 1920,
    "platforms": null,
    "tracks": 2,
    "lines": ["51B"]
  },
  {
    "name": "ECAUSSINNES",
    "nameClean": "Écaussinnes",
    "url": "https://nl.wikipedia.org/wiki/Station_Ecaussinnes",
    "lat": 50.562256733173506,
    "lon": 4.157047122716904,
    "region": "WAL",
    "province": "WHT",
    "city": "55050",
    "telegraphcode": "FCS",
    "opened": 1843,
    "platforms": null,
    "tracks": null,
    "lines": ["117"]
  },
  {
    "name": "EDE",
    "nameClean": "Ede",
    "url": "https://nl.wikipedia.org/wiki/Station_Ede",
    "lat": 50.910895923338806,
    "lon": 3.9874161779880524,
    "region": "VLG",
    "province": "VOV",
    "city": "41024",
    "telegraphcode": "MEE",
    "opened": 1894,
    "platforms": null,
    "tracks": null,
    "lines": ["89"]
  },
  {
    "name": "ENGHIEN/EDINGEN",
    "nameClean": "Edingen",
    "url": "https://nl.wikipedia.org/wiki/Station_Edingen",
    "lat": 50.69708880425904,
    "lon": 4.046977311372757,
    "region": "WAL",
    "province": "WHT",
    "city": "55010",
    "telegraphcode": "FNG",
    "opened": 1866,
    "platforms": null,
    "tracks": null,
    "lines": ["94", "123"]
  },
  {
    "name": "EEKLO",
    "nameClean": "Eeklo",
    "url": "https://nl.wikipedia.org/wiki/Station_Eeklo",
    "lat": 51.180771336976505,
    "lon": 3.5750573873519897,
    "region": "VLG",
    "province": "VOV",
    "city": "43005",
    "telegraphcode": "FKLO",
    "opened": 1861,
    "platforms": 2,
    "tracks": 3,
    "lines": ["58"]
  },
  {
    "name": "EICHEM",
    "nameClean": "Eichem",
    "url": "https://nl.wikipedia.org/wiki/Station_Eichem",
    "lat": 50.824094176562056,
    "lon": 3.993750214576721,
    "region": "VLG",
    "province": "VOV",
    "city": "41048",
    "telegraphcode": null,
    "opened": null,
    "platforms": null,
    "tracks": 2,
    "lines": ["90"]
  },
  {
    "name": "EINE",
    "nameClean": "Eine",
    "url": "https://nl.wikipedia.org/wiki/Station_Eine",
    "lat": 50.87103378329058,
    "lon": 3.6237701974779384,
    "region": "VLG",
    "province": "VOV",
    "city": "45035",
    "telegraphcode": "FEI",
    "opened": null,
    "platforms": 1,
    "tracks": null,
    "lines": ["86"]
  },
  {
    "name": "EKE-NAZARETH",
    "nameClean": "Eke-Nazareth",
    "url": "https://nl.wikipedia.org/wiki/Station_Eke-Nazareth",
    "lat": 50.96077504240129,
    "lon": 3.627835214138031,
    "region": "VLG",
    "province": "VOV",
    "city": "44048",
    "telegraphcode": "FKE",
    "opened": null,
    "platforms": null,
    "tracks": 1,
    "lines": ["86"]
  },
  {
    "name": "EKEREN",
    "nameClean": "Ekeren",
    "url": "https://nl.wikipedia.org/wiki/Station_Ekeren",
    "lat": 51.281598533354035,
    "lon": 4.434124678373337,
    "region": "VLG",
    "province": "VAN",
    "city": "11002",
    "telegraphcode": "LKR",
    "opened": 1854,
    "platforms": 2,
    "tracks": 2,
    "lines": ["12"]
  },
  {
    "name": "ENGIS",
    "nameClean": "Engis",
    "url": "https://nl.wikipedia.org/wiki/Station_Engis",
    "lat": 50.58275781861482,
    "lon": 5.402283011586746,
    "region": "WAL",
    "province": "WLG",
    "city": "61080",
    "telegraphcode": "NG",
    "opened": 1850,
    "platforms": 2,
    "tracks": null,
    "lines": ["125"]
  },
  {
    "name": "EPPEGEM",
    "nameClean": "Eppegem",
    "url": "https://nl.wikipedia.org/wiki/Station_Eppegem",
    "lat": 50.9585818320172,
    "lon": 4.457661541202697,
    "region": "VLG",
    "province": "VBR",
    "city": "23096",
    "telegraphcode": "FPH",
    "opened": 1865,
    "platforms": 4,
    "tracks": null,
    "lines": ["25", "27"]
  },
  {
    "name": "ERBISOEUL",
    "nameClean": "Erbisœul",
    "url": "https://nl.wikipedia.org/wiki/Station_Erbisoeul",
    "lat": 50.50723219840464,
    "lon": 3.8881154358386993,
    "region": "WAL",
    "province": "WHT",
    "city": "53044",
    "telegraphcode": "FIU",
    "opened": null,
    "platforms": null,
    "tracks": null,
    "lines": ["96"]
  },
  {
    "name": "EREMBODEGEM",
    "nameClean": "Erembodegem",
    "url": "https://nl.wikipedia.org/wiki/Station_Erembodegem",
    "lat": 50.91951521467773,
    "lon": 4.055608659982681,
    "region": "VLG",
    "province": "VOV",
    "city": "41002",
    "telegraphcode": "FRMB",
    "opened": null,
    "platforms": null,
    "tracks": null,
    "lines": ["50"]
  },
  {
    "name": "ERNAGE",
    "nameClean": "Ernage",
    "url": "https://nl.wikipedia.org/wiki/Station_Ernage",
    "lat": 50.59215227865836,
    "lon": 4.667338728904724,
    "region": "WAL",
    "province": "WNA",
    "city": "92142",
    "telegraphcode": "MNG",
    "opened": 1889,
    "platforms": null,
    "tracks": null,
    "lines": ["161"]
  },
  {
    "name": "ERPE-MERE",
    "nameClean": "Erpe-Mere",
    "url": "https://nl.wikipedia.org/wiki/Station_Erpe-Mere",
    "lat": 50.929102448402176,
    "lon": 3.962855190038681,
    "region": "VLG",
    "province": "VOV",
    "city": "41082",
    "telegraphcode": "FRPM",
    "opened": null,
    "platforms": null,
    "tracks": null,
    "lines": ["82"]
  },
  {
    "name": "ERPS-KWERPS",
    "nameClean": "Erps-Kwerps",
    "url": "https://nl.wikipedia.org/wiki/Station_Erps-Kwerps",
    "lat": 50.89666469666913,
    "lon": 4.587728452279407,
    "region": "VLG",
    "province": "VBR",
    "city": "24055",
    "telegraphcode": "MRP",
    "opened": 1887,
    "platforms": 2,
    "tracks": null,
    "lines": ["36"]
  },
  {
    "name": "ERQUELINNES",
    "nameClean": "Erquelinnes",
    "url": "https://nl.wikipedia.org/wiki/Station_Erquelinnes",
    "lat": 50.30387257525832,
    "lon": 4.112213999032974,
    "region": "WAL",
    "province": "WHT",
    "city": "56022",
    "telegraphcode": "LQ",
    "opened": 1852,
    "platforms": 2,
    "tracks": null,
    "lines": ["130A"]
  },
  {
    "name": "ERQUELINNES-VILLAGE",
    "nameClean": "Erquelinnes-Village",
    "url": "https://nl.wikipedia.org/wiki/Station_Erquelinnes-Village",
    "lat": 50.31019703036943,
    "lon": 4.131679317183057,
    "region": "WAL",
    "province": "WHT",
    "city": "56022",
    "telegraphcode": null,
    "opened": null,
    "platforms": null,
    "tracks": null,
    "lines": ["130A"]
  },
  {
    "name": "ESNEUX",
    "nameClean": "Esneux",
    "url": "https://nl.wikipedia.org/wiki/Station_Esneux",
    "lat": 50.530393440001866,
    "lon": 5.572576224803925,
    "region": "WAL",
    "province": "WLG",
    "city": "62032",
    "telegraphcode": "LSN",
    "opened": 1866,
    "platforms": 2,
    "tracks": null,
    "lines": ["43"]
  },
  {
    "name": "ESSEN",
    "nameClean": "Essen",
    "url": "https://nl.wikipedia.org/wiki/Station_Essen",
    "lat": 51.46276419996717,
    "lon": 4.451317638158798,
    "region": "VLG",
    "province": "VAN",
    "city": "11016",
    "telegraphcode": "FES",
    "opened": 1854,
    "platforms": null,
    "tracks": 3,
    "lines": ["12"]
  },
  {
    "name": "ESSENE-LOMBEEK",
    "nameClean": "Essene-Lombeek",
    "url": "https://nl.wikipedia.org/wiki/Station_Essene-Lombeek",
    "lat": 50.88235090221062,
    "lon": 4.115869684175095,
    "region": "VLG",
    "province": "VBR",
    "city": "23086",
    "telegraphcode": "FKS",
    "opened": 1869,
    "platforms": 2,
    "tracks": null,
    "lines": ["50"]
  },
  {
    "name": "ETTERBEEK",
    "nameClean": "Etterbeek",
    "url": "https://nl.wikipedia.org/wiki/Station_Etterbeek",
    "lat": 50.82220831528429,
    "lon": 4.389510154724121,
    "region": "BRU",
    "city": "21009",
    "telegraphcode": "MTB",
    "opened": 1880,
    "platforms": 4,
    "tracks": null,
    "lines": ["26", "161"]
  },
  {
    "name": "EUPEN",
    "nameClean": "Eupen",
    "url": "https://nl.wikipedia.org/wiki/Station_Eupen",
    "lat": 50.63517846862402,
    "lon": 6.036928296089172,
    "region": "WAL",
    "province": "WLG",
    "city": "63023",
    "telegraphcode": "REP",
    "opened": 1864,
    "platforms": null,
    "tracks": 3,
    "lines": ["49"]
  },
  {
    "name": "EVERE",
    "nameClean": "Evere",
    "url": "https://nl.wikipedia.org/wiki/Station_Evere",
    "lat": 50.867263195053276,
    "lon": 4.40058716063038,
    "region": "BRU",
    "city": "21006",
    "telegraphcode": null,
    "opened": 1926,
    "platforms": 2,
    "tracks": null,
    "lines": ["26"]
  },
  {
    "name": "EVERGEM",
    "nameClean": "Evergem",
    "url": "https://nl.wikipedia.org/wiki/Station_Evergem",
    "lat": 51.10713693604091,
    "lon": 3.7023255228996277,
    "region": "VLG",
    "province": "VOV",
    "city": "44019",
    "telegraphcode": "FMV",
    "opened": 1861,
    "platforms": null,
    "tracks": 1,
    "lines": ["58"]
  },
  {
    "name": "EZEMAAL",
    "nameClean": "Ezemaal",
    "url": "https://nl.wikipedia.org/wiki/Station_Ezemaal",
    "lat": 50.77158949310464,
    "lon": 4.995262920856476,
    "region": "VLG",
    "province": "VBR",
    "city": "24059",
    "telegraphcode": "FZE",
    "opened": null,
    "platforms": null,
    "tracks": null,
    "lines": ["36"]
  },
  {
    "name": "FAMILLEUREUX",
    "nameClean": "Familleureux",
    "url": "https://nl.wikipedia.org/wiki/Station_Familleureux",
    "lat": 50.51995163387319,
    "lon": 4.210557582929368,
    "region": "WAL",
    "province": "WHT",
    "city": "52063",
    "telegraphcode": "FFM",
    "opened": null,
    "platforms": null,
    "tracks": null,
    "lines": ["117"]
  },
  {
    "name": "FARCIENNES",
    "nameClean": "Farciennes",
    "url": "https://nl.wikipedia.org/wiki/Station_Farciennes",
    "lat": 50.429435078038345,
    "lon": 4.5527467131614685,
    "region": "WAL",
    "province": "WHT",
    "city": "52018",
    "telegraphcode": "FFC",
    "opened": 1847,
    "platforms": null,
    "tracks": null,
    "lines": ["130"]
  },
  {
    "name": "FAUX",
    "nameClean": "Faux",
    "url": "https://nl.wikipedia.org/wiki/Station_Faux",
    "lat": 50.62141879396506,
    "lon": 4.54901710152626,
    "region": "WAL",
    "province": "WBR",
    "city": "25023",
    "telegraphcode": "MFX",
    "opened": null,
    "platforms": null,
    "tracks": null,
    "lines": ["140"]
  },
  {
    "name": "FEXHE-LE-HT-CLOCHER",
    "nameClean": "Fexhe-le-Haut-Clocher",
    "url": "https://nl.wikipedia.org/wiki/Station_Fexhe-le-Haut-Clocher",
    "lat": 50.66425673110738,
    "lon": 5.3970801321482895,
    "region": "WAL",
    "province": "WLG",
    "city": "64025",
    "telegraphcode": "FXH",
    "opened": 1838,
    "platforms": 2,
    "tracks": null,
    "lines": ["36"]
  },
  {
    "name": "FLAWINNE",
    "nameClean": "Flawinne",
    "url": "https://nl.wikipedia.org/wiki/Station_Flawinne",
    "lat": 50.4563260566389,
    "lon": 4.806596421795689,
    "region": "WAL",
    "province": "WNA",
    "city": "92094",
    "telegraphcode": "FFW",
    "opened": 1867,
    "platforms": null,
    "tracks": null,
    "lines": ["130"]
  },
  {
    "name": "FLEURUS",
    "nameClean": "Fleurus",
    "url": "https://nl.wikipedia.org/wiki/Station_Fleurus",
    "lat": 50.48298480249545,
    "lon": 4.544839560985565,
    "region": "WAL",
    "province": "WHT",
    "city": "52021",
    "telegraphcode": "LFR",
    "opened": 1855,
    "platforms": null,
    "tracks": null,
    "lines": ["140", "147"]
  },
  {
    "name": "FLOREFFE",
    "nameClean": "Floreffe",
    "url": "https://nl.wikipedia.org/wiki/Station_Floreffe",
    "lat": 50.443185943599836,
    "lon": 4.762747585773468,
    "region": "WAL",
    "province": "WNA",
    "city": "92045",
    "telegraphcode": "FLF",
    "opened": 1843,
    "platforms": null,
    "tracks": null,
    "lines": ["130"]
  },
  {
    "name": "FLORENVILLE",
    "nameClean": "Florenville",
    "url": "https://nl.wikipedia.org/wiki/Station_Florenville",
    "lat": 49.70699257222151,
    "lon": 5.331654058572326,
    "region": "WAL",
    "province": "WLX",
    "city": "85011",
    "telegraphcode": "MFL",
    "opened": 1879,
    "platforms": 2,
    "tracks": null,
    "lines": ["165"]
  },
  {
    "name": "FLORIVAL",
    "nameClean": "Florival",
    "url": "https://nl.wikipedia.org/wiki/Station_Florival",
    "lat": 50.76154228390586,
    "lon": 4.653903543949127,
    "region": "WAL",
    "province": "WBR",
    "city": "25037",
    "telegraphcode": "GFL",
    "opened": null,
    "platforms": 2,
    "tracks": null,
    "lines": ["139"]
  },
  {
    "name": "FLEMALLE-GRANDE",
    "nameClean": "Flémalle-Grande",
    "url": "https://nl.wikipedia.org/wiki/Station_Flémalle-Grande",
    "lat": 50.604881264493095,
    "lon": 5.480203221766942,
    "region": "WAL",
    "province": "WLG",
    "city": "62120",
    "telegraphcode": "NFG",
    "opened": 1850,
    "platforms": null,
    "tracks": null,
    "lines": ["125"]
  },
  {
    "name": "FLEMALLE-HAUTE",
    "nameClean": "Flémalle-Haute",
    "url": "https://nl.wikipedia.org/wiki/Station_Flémalle-Haute",
    "lat": 50.5944624703223,
    "lon": 5.456510364129599,
    "region": "WAL",
    "province": "WLG",
    "city": "62120",
    "telegraphcode": "LFH",
    "opened": 1850,
    "platforms": null,
    "tracks": null,
    "lines": ["125", "125A"]
  },
  {
    "name": "FONTAINE-VALMONT",
    "nameClean": "Fontaine-Valmont",
    "url": "https://nl.wikipedia.org/wiki/Station_Fontaine-Valmont",
    "lat": 50.32124950248112,
    "lon": 4.212803542613983,
    "region": "WAL",
    "province": "WHT",
    "city": "56049",
    "telegraphcode": "NFV",
    "opened": null,
    "platforms": 2,
    "tracks": null,
    "lines": ["130A"]
  },
  {
    "name": "FORCHIES",
    "nameClean": "Forchies",
    "url": "https://nl.wikipedia.org/wiki/Station_Forchies",
    "lat": 50.43326484511516,
    "lon": 4.324650317430496,
    "region": "WAL",
    "province": "WHT",
    "city": "52022",
    "telegraphcode": "LFC",
    "opened": 1983,
    "platforms": null,
    "tracks": null,
    "lines": ["112"]
  },
  {
    "name": "FORRIERES",
    "nameClean": "Forrières",
    "url": "https://nl.wikipedia.org/wiki/Station_Forrières",
    "lat": 50.132686117599405,
    "lon": 5.276867245080439,
    "region": "WAL",
    "province": "WLX",
    "city": "83040",
    "telegraphcode": "MFR",
    "opened": null,
    "platforms": 2,
    "tracks": null,
    "lines": ["162"]
  },
  {
    "name": "FRAIPONT",
    "nameClean": "Fraipont",
    "url": "https://nl.wikipedia.org/wiki/Station_Fraipont",
    "lat": 50.56501606798034,
    "lon": 5.723722303529939,
    "region": "WAL",
    "province": "WLG",
    "city": "62122",
    "telegraphcode": null,
    "opened": 1887,
    "platforms": null,
    "tracks": null,
    "lines": ["37"]
  },
  {
    "name": "FRAMERIES",
    "nameClean": "Frameries",
    "url": "https://nl.wikipedia.org/wiki/Station_Frameries",
    "lat": 50.40588083047223,
    "lon": 3.906189501285553,
    "region": "WAL",
    "province": "WHT",
    "city": "53028",
    "telegraphcode": "LRS",
    "opened": 1857,
    "platforms": null,
    "tracks": null,
    "lines": ["96"]
  },
  {
    "name": "FRANCHIMONT",
    "nameClean": "Franchimont",
    "url": "https://nl.wikipedia.org/wiki/Station_Franchimont",
    "lat": 50.525425670853274,
    "lon": 5.822525918483734,
    "region": "WAL",
    "province": "WLG",
    "city": "63076",
    "telegraphcode": null,
    "opened": null,
    "platforms": 1,
    "tracks": null,
    "lines": ["44"]
  },
  {
    "name": "FRANIERE",
    "nameClean": "Franière",
    "url": "https://nl.wikipedia.org/wiki/Station_Franière",
    "lat": 50.43930231398223,
    "lon": 4.734190106391907,
    "region": "WAL",
    "province": "WNA",
    "city": "92045",
    "telegraphcode": "FNF",
    "opened": null,
    "platforms": null,
    "tracks": 2,
    "lines": ["130"]
  },
  {
    "name": "FROYENNES",
    "nameClean": "Froyennes",
    "url": "https://nl.wikipedia.org/wiki/Station_Froyennes",
    "lat": 50.62986634831194,
    "lon": 3.354671342060783,
    "region": "WAL",
    "province": "WHT",
    "city": "57081",
    "telegraphcode": "GFY",
    "opened": null,
    "platforms": null,
    "tracks": null,
    "lines": ["75A", "94"]
  },
  {
    "name": "GALMAARDEN",
    "nameClean": "Galmaarden",
    "url": "https://nl.wikipedia.org/wiki/Station_Galmaarden",
    "lat": 50.743662063978384,
    "lon": 3.966836127621036,
    "region": "VLG",
    "province": "VBR",
    "city": "23023",
    "telegraphcode": "FGM",
    "opened": 1867,
    "platforms": 2,
    "tracks": null,
    "lines": ["123"]
  },
  {
    "name": "GASTUCHE",
    "nameClean": "Gastuche",
    "url": "https://nl.wikipedia.org/wiki/Station_Gastuche",
    "lat": 50.73626682720385,
    "lon": 4.649670278146232,
    "region": "WAL",
    "province": "WBR",
    "city": "25037",
    "telegraphcode": "GG",
    "opened": 1855,
    "platforms": 2,
    "tracks": null,
    "lines": ["139"]
  },
  {
    "name": "GAVERE-ASPER",
    "nameClean": "Gavere-Asper",
    "url": "https://nl.wikipedia.org/wiki/Station_Gavere-Asper",
    "lat": 50.92895452531805,
    "lon": 3.640212267637253,
    "region": "VLG",
    "province": "VOV",
    "city": "44020",
    "telegraphcode": "FGA",
    "opened": 1857,
    "platforms": null,
    "tracks": 2,
    "lines": ["86"]
  },
  {
    "name": "GEDINNE",
    "nameClean": "Gedinne",
    "url": "https://nl.wikipedia.org/wiki/Station_Gedinne",
    "lat": 49.98433514091509,
    "lon": 4.978033751249313,
    "region": "WAL",
    "province": "WNA",
    "city": "91054",
    "telegraphcode": "MG",
    "opened": 1880,
    "platforms": null,
    "tracks": null,
    "lines": ["166"]
  },
  {
    "name": "GEEL",
    "nameClean": "Geel",
    "url": "https://nl.wikipedia.org/wiki/Station_Geel",
    "lat": 51.168880738781525,
    "lon": 4.989244043827057,
    "region": "VLG",
    "province": "VAN",
    "city": "13008",
    "telegraphcode": "LG",
    "opened": 1878,
    "platforms": 2,
    "tracks": null,
    "lines": ["15"]
  },
  {
    "name": "GEMBLOUX",
    "nameClean": "Gembloux",
    "url": "https://nl.wikipedia.org/wiki/Station_Gembloux",
    "lat": 50.57018405651237,
    "lon": 4.6911366283893585,
    "region": "WAL",
    "province": "WNA",
    "city": "92142",
    "telegraphcode": "LGB",
    "opened": 1855,
    "platforms": 5,
    "tracks": null,
    "lines": ["144", "161"]
  },
  {
    "name": "GENDRON-CELLES",
    "nameClean": "Gendron-Celles",
    "url": "https://nl.wikipedia.org/wiki/Station_Gendron-Celles",
    "lat": 50.21032735728812,
    "lon": 4.964725971221924,
    "region": "WAL",
    "province": "WNA",
    "city": "91072",
    "telegraphcode": "MGN",
    "opened": 1896,
    "platforms": null,
    "tracks": 3,
    "lines": ["166"]
  },
  {
    "name": "GENK",
    "nameClean": "Genk",
    "url": "https://nl.wikipedia.org/wiki/Station_Genk",
    "lat": 50.96712335681563,
    "lon": 5.496117174625397,
    "region": "VLG",
    "province": "VLI",
    "city": "71016",
    "telegraphcode": "FKG",
    "opened": 1874,
    "platforms": null,
    "tracks": null,
    "lines": ["21A"]
  },
  {
    "name": "GENLY",
    "nameClean": "Genly",
    "url": "https://nl.wikipedia.org/wiki/Station_Genly",
    "lat": 50.39126443703165,
    "lon": 3.9112917333841324,
    "region": "WAL",
    "province": "WHT",
    "city": "53084",
    "telegraphcode": "MLY",
    "opened": 1988,
    "platforms": 2,
    "tracks": null,
    "lines": ["96"]
  },
  {
    "name": "GENT-DAMPOORT",
    "nameClean": "Gent-Dampoort",
    "url": "https://nl.wikipedia.org/wiki/Station_Gent-Dampoort",
    "lat": 51.0562491722193,
    "lon": 3.7402786508741883,
    "region": "VLG",
    "province": "VOV",
    "city": "44021",
    "telegraphcode": "FGDM",
    "opened": 1861,
    "platforms": 1,
    "tracks": 3,
    "lines": ["58", "59"]
  },
  {
    "name": "GENT-SINT-PIETERS",
    "nameClean": "Gent-Sint-Pieters",
    "url": "https://nl.wikipedia.org/wiki/Station_Gent-Sint-Pieters",
    "lat": 51.03611328330639,
    "lon": 3.7108388543128967,
    "region": "VLG",
    "province": "VOV",
    "city": "44021",
    "telegraphcode": "FGSP",
    "opened": 1912,
    "platforms": 6,
    "tracks": 12,
    "lines": ["50", "50A", "50E", "75"]
  },
  {
    "name": "GENTBRUGGE",
    "nameClean": "Gentbrugge",
    "url": "https://nl.wikipedia.org/wiki/Station_Gentbrugge",
    "lat": 51.03877896431717,
    "lon": 3.756226524710655,
    "region": "VLG",
    "province": "VOV",
    "city": "44021",
    "telegraphcode": "FUGE",
    "opened": 1861,
    "platforms": null,
    "tracks": 2,
    "lines": ["58"]
  },
  {
    "name": "GENVAL",
    "nameClean": "Genval",
    "url": "https://nl.wikipedia.org/wiki/Station_Genval",
    "lat": 50.72542492807654,
    "lon": 4.51507106423378,
    "region": "WAL",
    "province": "WBR",
    "city": "25091",
    "telegraphcode": "MGV",
    "opened": 1889,
    "platforms": 3,
    "tracks": null,
    "lines": ["161"]
  },
  {
    "name": "GERAARDSBERGEN",
    "nameClean": "Geraardsbergen",
    "url": "https://nl.wikipedia.org/wiki/Station_Geraardsbergen",
    "lat": 50.77042075181257,
    "lon": 3.8723024725914,
    "region": "VLG",
    "province": "VOV",
    "city": "41018",
    "telegraphcode": "FGRA",
    "opened": 1855,
    "platforms": 8,
    "tracks": null,
    "lines": ["90", "122", "123"]
  },
  {
    "name": "GERMOIR/MOUTERIJ",
    "nameClean": "Mouterij",
    "url": "https://nl.wikipedia.org/wiki/Station_Mouterij",
    "lat": 50.83107780801504,
    "lon": 4.378577470779419,
    "region": "BRU",
    "city": "21009",
    "telegraphcode": null,
    "opened": 2015,
    "platforms": 2,
    "tracks": null,
    "lines": ["161"]
  },
  {
    "name": "GHLIN",
    "nameClean": "Ghlin",
    "url": "https://nl.wikipedia.org/wiki/Station_Ghlin",
    "lat": 50.487465523694425,
    "lon": 3.9063739444861767,
    "region": "WAL",
    "province": "WHT",
    "city": "53053",
    "telegraphcode": "FIH",
    "opened": null,
    "platforms": null,
    "tracks": null,
    "lines": ["96"]
  },
  {
    "name": "GLONS",
    "nameClean": "Glons",
    "url": "https://nl.wikipedia.org/wiki/Station_Glons",
    "lat": 50.75045858780661,
    "lon": 5.535347163677216,
    "region": "WAL",
    "province": "WLG",
    "city": "62011",
    "telegraphcode": "LGL",
    "opened": 1864,
    "platforms": 1,
    "tracks": null,
    "lines": ["34"]
  },
  {
    "name": "GODARVILLE",
    "nameClean": "Godarville",
    "url": "https://nl.wikipedia.org/wiki/Station_Godarville",
    "lat": 50.49287085934579,
    "lon": 4.290130303071692,
    "region": "WAL",
    "province": "WHT",
    "city": "52010",
    "telegraphcode": "FDI",
    "opened": null,
    "platforms": null,
    "tracks": null,
    "lines": ["117"]
  },
  {
    "name": "GODINNE",
    "nameClean": "Godinne",
    "url": "https://nl.wikipedia.org/wiki/Station_Godinne",
    "lat": 50.34853190262854,
    "lon": 4.867703765630722,
    "region": "WAL",
    "province": "WNA",
    "city": "91141",
    "telegraphcode": "NGD",
    "opened": 1862,
    "platforms": 2,
    "tracks": null,
    "lines": ["154"]
  },
  {
    "name": "GONTRODE",
    "nameClean": "Gontrode",
    "url": "https://nl.wikipedia.org/wiki/Station_Gontrode",
    "lat": 50.97974769589616,
    "lon": 3.8013789341853226,
    "region": "VLG",
    "province": "VOV",
    "city": "44040",
    "telegraphcode": "FOO",
    "opened": 1867,
    "platforms": null,
    "tracks": 2,
    "lines": ["122"]
  },
  {
    "name": "GOUVY",
    "nameClean": "Gouvy",
    "url": "https://nl.wikipedia.org/wiki/Station_Gouvy",
    "lat": 50.18983180255206,
    "lon": 5.953919291496277,
    "region": "WAL",
    "province": "WLX",
    "city": "82037",
    "telegraphcode": "FVY",
    "opened": 1867,
    "platforms": null,
    "tracks": null,
    "lines": ["42"]
  },
  {
    "name": "GOUY-LEZ-PIETON",
    "nameClean": "Gouy-lez-Piéton",
    "url": "https://nl.wikipedia.org/wiki/Station_Gouy-lez-Piéton",
    "lat": 50.49692357455917,
    "lon": 4.3252792954444885,
    "region": "WAL",
    "province": "WHT",
    "city": "52015",
    "telegraphcode": "FGP",
    "opened": null,
    "platforms": null,
    "tracks": null,
    "lines": ["117"]
  },
  {
    "name": "GRAIDE",
    "nameClean": "Graide",
    "url": "https://nl.wikipedia.org/wiki/Station_Graide",
    "lat": 49.93365316174025,
    "lon": 5.043520816550199,
    "region": "WAL",
    "province": "WNA",
    "city": "91015",
    "telegraphcode": "MGD",
    "opened": 1880,
    "platforms": 2,
    "tracks": null,
    "lines": ["166"]
  },
  {
    "name": "GROENENDAAL",
    "nameClean": "Groenendaal",
    "url": "https://nl.wikipedia.org/wiki/Station_Groenendaal",
    "lat": 50.76638188322644,
    "lon": 4.448946955935753,
    "region": "VLG",
    "province": "VBR",
    "city": "23033",
    "telegraphcode": "MDL",
    "opened": 1854,
    "platforms": 2,
    "tracks": null,
    "lines": ["161"]
  },
  {
    "name": "GROOT-BIJGAARDEN",
    "nameClean": "Groot-Bijgaarden",
    "url": "https://nl.wikipedia.org/wiki/Station_Groot-Bijgaarden",
    "lat": 50.86840184056885,
    "lon": 4.273704439401627,
    "region": "VLG",
    "province": "VBR",
    "city": "23016",
    "telegraphcode": "MGA",
    "opened": 1888,
    "platforms": 2,
    "tracks": null,
    "lines": ["50"]
  },
  {
    "name": "GRUPONT",
    "nameClean": "Grupont",
    "url": "https://nl.wikipedia.org/wiki/Station_Grupont",
    "lat": 50.09082936501848,
    "lon": 5.280965724771477,
    "region": "WAL",
    "province": "WLX",
    "city": "84068",
    "telegraphcode": "MGP",
    "opened": 1858,
    "platforms": 2,
    "tracks": 2,
    "lines": ["162"]
  },
  {
    "name": "HAACHT",
    "nameClean": "Haacht",
    "url": "https://nl.wikipedia.org/wiki/Station_Haacht",
    "lat": 50.96630241555244,
    "lon": 4.613593965768814,
    "region": "VLG",
    "province": "VBR",
    "city": "24033",
    "telegraphcode": "FAT",
    "opened": null,
    "platforms": null,
    "tracks": null,
    "lines": ["53"]
  },
  {
    "name": "HAALTERT",
    "nameClean": "Haaltert",
    "url": "https://nl.wikipedia.org/wiki/Station_Haaltert",
    "lat": 50.90676750040265,
    "lon": 4.023534804582596,
    "region": "VLG",
    "province": "VOV",
    "city": "41002",
    "telegraphcode": "FHA",
    "opened": 1868,
    "platforms": null,
    "tracks": null,
    "lines": ["89"]
  },
  {
    "name": "HABAY",
    "nameClean": "Habay",
    "url": "https://nl.wikipedia.org/wiki/Station_Habay",
    "lat": 49.7182937906657,
    "lon": 5.632661730051041,
    "region": "WAL",
    "province": "WLX",
    "city": "85046",
    "telegraphcode": "MHB",
    "opened": 1858,
    "platforms": null,
    "tracks": null,
    "lines": ["162"]
  },
  {
    "name": "HAININ",
    "nameClean": "Hainin",
    "url": "https://nl.wikipedia.org/wiki/Station_Hainin",
    "lat": 50.428165015925664,
    "lon": 3.7672373285822687,
    "region": "WAL",
    "province": "WHT",
    "city": "53039",
    "telegraphcode": null,
    "opened": 1842,
    "platforms": 1,
    "tracks": null,
    "lines": ["97"]
  },
  {
    "name": "HALANZY",
    "nameClean": "Halanzy",
    "url": "https://nl.wikipedia.org/wiki/Station_Halanzy",
    "lat": 49.555960415868086,
    "lon": 5.7433996352934855,
    "region": "WAL",
    "province": "WLX",
    "city": "81004",
    "telegraphcode": "MHZ",
    "opened": 1877,
    "platforms": 2,
    "tracks": null,
    "lines": ["165"]
  },
  {
    "name": "HALLE",
    "nameClean": "Halle",
    "url": "https://nl.wikipedia.org/wiki/Station_Halle",
    "lat": 50.733535279063275,
    "lon": 4.240117818117142,
    "region": "VLG",
    "province": "VBR",
    "city": "23027",
    "telegraphcode": "FH",
    "opened": 1840,
    "platforms": 3,
    "tracks": 5,
    "lines": ["HSL 1", "26", "94", "96", "96E", "96N"]
  },
  {
    "name": "HAM-SUR-HEURE",
    "nameClean": "Ham-sur-Heure",
    "url": "https://nl.wikipedia.org/wiki/Station_Ham-sur-Heure",
    "lat": 50.31970647591213,
    "lon": 4.404931515455246,
    "region": "WAL",
    "province": "WHT",
    "city": "56086",
    "telegraphcode": "LHH",
    "opened": 1848,
    "platforms": null,
    "tracks": null,
    "lines": ["132"]
  },
  {
    "name": "HAM-SUR-SAMBRE",
    "nameClean": "Ham-sur-Sambre",
    "url": "https://nl.wikipedia.org/wiki/Station_Ham-sur-Sambre",
    "lat": 50.45293418363038,
    "lon": 4.671176970005035,
    "region": "WAL",
    "province": "WNA",
    "city": "92140",
    "telegraphcode": "MHM",
    "opened": null,
    "platforms": null,
    "tracks": null,
    "lines": ["130"]
  },
  {
    "name": "HAMBOS",
    "nameClean": "Hambos",
    "url": "https://nl.wikipedia.org/wiki/Station_Hambos",
    "lat": 50.944143204470926,
    "lon": 4.663837320039647,
    "region": "VLG",
    "province": "VBR",
    "city": "24033",
    "telegraphcode": null,
    "opened": null,
    "platforms": null,
    "tracks": null,
    "lines": ["53"]
  },
  {
    "name": "HAMOIR",
    "nameClean": "Hamoir",
    "url": "https://nl.wikipedia.org/wiki/Station_Hamoir",
    "lat": 50.42829469048818,
    "lon": 5.533722865947311,
    "region": "WAL",
    "province": "WLG",
    "city": "61024",
    "telegraphcode": "LHM",
    "opened": 1866,
    "platforms": 2,
    "tracks": null,
    "lines": ["43"]
  },
  {
    "name": "HAMONT",
    "nameClean": "Hamont",
    "url": "https://nl.wikipedia.org/wiki/Station_Hamont",
    "lat": 51.246279367028265,
    "lon": 5.543533265590668,
    "region": "VLG",
    "province": "VLI",
    "city": "72037",
    "telegraphcode": "GHA",
    "opened": 1879,
    "platforms": 1,
    "tracks": null,
    "lines": ["19"]
  },
  {
    "name": "HANSBEKE",
    "nameClean": "Hansbeke",
    "url": "https://nl.wikipedia.org/wiki/Station_Hansbeke",
    "lat": 51.073250829609115,
    "lon": 3.5361750671706886,
    "region": "VLG",
    "province": "VOV",
    "city": "44083",
    "telegraphcode": "FHK",
    "opened": null,
    "platforms": null,
    "tracks": 2,
    "lines": ["50A"]
  },
  {
    "name": "HARCHIES",
    "nameClean": "Harchies",
    "url": "https://nl.wikipedia.org/wiki/Station_Harchies",
    "lat": 50.482340088663484,
    "lon": 3.6990787088871,
    "region": "WAL",
    "province": "WHT",
    "city": "51009",
    "telegraphcode": "FRH",
    "opened": 1861,
    "platforms": null,
    "tracks": null,
    "lines": ["78"]
  },
  {
    "name": "HARELBEKE",
    "nameClean": "Harelbeke",
    "url": "https://nl.wikipedia.org/wiki/Station_Harelbeke",
    "lat": 50.85659937243802,
    "lon": 3.3146477690577285,
    "region": "VLG",
    "province": "VWV",
    "city": "34013",
    "telegraphcode": "FHL",
    "opened": 1839,
    "platforms": null,
    "tracks": null,
    "lines": ["75"]
  },
  {
    "name": "HAREN",
    "nameClean": "Haren",
    "url": "https://nl.wikipedia.org/wiki/Station_Haren",
    "lat": 50.888645391443895,
    "lon": 4.419912663316268,
    "region": "BRU",
    "city": "21004",
    "telegraphcode": "GHT",
    "opened": 1978,
    "platforms": 2,
    "tracks": null,
    "lines": ["26"]
  },
  {
    "name": "HAREN-ZUID/SUD",
    "nameClean": "Haren-Zuid",
    "url": "https://nl.wikipedia.org/wiki/Station_Haren-Zuid",
    "lat": 50.89009364052471,
    "lon": 4.417391717433929,
    "region": "BRU",
    "city": "21004",
    "telegraphcode": "HARZ",
    "opened": 1866,
    "platforms": 2,
    "tracks": null,
    "lines": ["36"]
  },
  {
    "name": "HASSELT",
    "nameClean": "Hasselt",
    "url": "https://nl.wikipedia.org/wiki/Station_Hasselt",
    "lat": 50.93092059599906,
    "lon": 5.3276315331459045,
    "region": "VLG",
    "province": "VLI",
    "city": "71022",
    "telegraphcode": "FHS",
    "opened": 1847,
    "platforms": 9,
    "tracks": null,
    "lines": ["21", "21A", "34", "35"]
  },
  {
    "name": "HAUTE-FLONE",
    "nameClean": "Haute-Flône",
    "url": "https://nl.wikipedia.org/wiki/Station_Haute-Flône",
    "lat": 50.553680425880806,
    "lon": 5.330451307905605,
    "region": "WAL",
    "province": "WLG",
    "city": "61003",
    "telegraphcode": null,
    "opened": 1888,
    "platforms": 2,
    "tracks": null,
    "lines": ["125"]
  },
  {
    "name": "HAVERSIN",
    "nameClean": "Haversin",
    "url": "https://nl.wikipedia.org/wiki/Station_Haversin",
    "lat": 50.24912589748841,
    "lon": 5.194512158632278,
    "region": "WAL",
    "province": "WNA",
    "city": "91030",
    "telegraphcode": "MHV",
    "opened": 1858,
    "platforms": null,
    "tracks": null,
    "lines": ["162"]
  },
  {
    "name": "HAVRE",
    "nameClean": "Havré",
    "url": "https://nl.wikipedia.org/wiki/Station_Havré",
    "lat": 50.47059750857966,
    "lon": 4.05973447588849,
    "region": "WAL",
    "province": "WHT",
    "city": "53053",
    "telegraphcode": "LHR",
    "opened": null,
    "platforms": null,
    "tracks": null,
    "lines": ["118"]
  },
  {
    "name": "HEIDE",
    "nameClean": "Heide",
    "url": "https://nl.wikipedia.org/wiki/Station_Heide",
    "lat": 51.36480258734929,
    "lon": 4.46038082242012,
    "region": "VLG",
    "province": "VAN",
    "city": "11022",
    "telegraphcode": "MID",
    "opened": 1897,
    "platforms": 2,
    "tracks": 2,
    "lines": ["12"]
  },
  {
    "name": "HEIST",
    "nameClean": "Heist",
    "url": "https://nl.wikipedia.org/wiki/Station_Heist",
    "lat": 51.334034561957694,
    "lon": 3.239176422357559,
    "region": "VLG",
    "province": "VWV",
    "city": "31043",
    "telegraphcode": "FHI",
    "opened": 1868,
    "platforms": 2,
    "tracks": null,
    "lines": ["51B"]
  },
  {
    "name": "HEIST-OP-DEN-BERG",
    "nameClean": "Heist-op-den-Berg",
    "url": "https://nl.wikipedia.org/wiki/Station_Heist-op-den-Berg",
    "lat": 51.07407780938024,
    "lon": 4.708693027496338,
    "region": "VLG",
    "province": "VAN",
    "city": "12014",
    "telegraphcode": "GHO",
    "opened": 1864,
    "platforms": 3,
    "tracks": null,
    "lines": ["16"]
  },
  {
    "name": "HEIZIJDE",
    "nameClean": "Heizijde",
    "url": "https://nl.wikipedia.org/wiki/Station_Heizijde",
    "lat": 50.98921899406533,
    "lon": 4.1568818500780935,
    "region": "VLG",
    "province": "VOV",
    "city": "42011",
    "telegraphcode": "LEZ",
    "opened": 1879,
    "platforms": null,
    "tracks": 2,
    "lines": ["60"]
  },
  {
    "name": "HEMIKSEM",
    "nameClean": "Hemiksem",
    "url": "https://nl.wikipedia.org/wiki/Station_Hemiksem",
    "lat": 51.13625810887938,
    "lon": 4.338387857348948,
    "region": "VLG",
    "province": "VAN",
    "city": "11018",
    "telegraphcode": "LKM",
    "opened": 1879,
    "platforms": 2,
    "tracks": null,
    "lines": ["52"]
  },
  {
    "name": "HENNUYERES",
    "nameClean": "Hennuyères",
    "url": "https://nl.wikipedia.org/wiki/Station_Hennuyères",
    "lat": 50.65131320136441,
    "lon": 4.176579887982484,
    "region": "WAL",
    "province": "WHT",
    "city": "55004",
    "telegraphcode": "FNY",
    "opened": null,
    "platforms": 2,
    "tracks": null,
    "lines": ["96"]
  },
  {
    "name": "HERENT",
    "nameClean": "Herent",
    "url": "https://nl.wikipedia.org/wiki/Station_Herent",
    "lat": 50.90382613511164,
    "lon": 4.673706293106079,
    "region": "VLG",
    "province": "VBR",
    "city": "24038",
    "telegraphcode": "FET",
    "opened": 1866,
    "platforms": 4,
    "tracks": null,
    "lines": ["36"]
  },
  {
    "name": "HERENTALS",
    "nameClean": "Herentals",
    "url": "https://nl.wikipedia.org/wiki/Station_Herentals",
    "lat": 51.181032791419824,
    "lon": 4.828855991363525,
    "region": "VLG",
    "province": "VAN",
    "city": "13011",
    "telegraphcode": "FHT",
    "opened": 1855,
    "platforms": null,
    "tracks": null,
    "lines": ["15", "29"]
  },
  {
    "name": "HERGENRATH",
    "nameClean": "Hergenrath",
    "url": "https://nl.wikipedia.org/wiki/Station_Hergenrath",
    "lat": 50.70894778171646,
    "lon": 6.043450087308884,
    "region": "WAL",
    "province": "WLG",
    "city": "63040",
    "telegraphcode": "REG",
    "opened": null,
    "platforms": 2,
    "tracks": null,
    "lines": ["37"]
  },
  {
    "name": "HERNE",
    "nameClean": "Herne",
    "url": "https://nl.wikipedia.org/wiki/Station_Herne",
    "lat": 50.724229389029425,
    "lon": 4.013918822597816,
    "region": "VLG",
    "province": "VBR",
    "city": "23032",
    "telegraphcode": "FRE",
    "opened": 1867,
    "platforms": 2,
    "tracks": null,
    "lines": ["123"]
  },
  {
    "name": "HERSEAUX",
    "nameClean": "Herseaux",
    "url": "https://nl.wikipedia.org/wiki/Station_Herseaux",
    "lat": 50.71377647007925,
    "lon": 3.24601873755455,
    "region": "WAL",
    "province": "WHT",
    "city": "54007",
    "telegraphcode": "FXS",
    "opened": 1842,
    "platforms": null,
    "tracks": null,
    "lines": ["75A"]
  },
  {
    "name": "HERSTAL",
    "nameClean": "Herstal",
    "url": "https://nl.wikipedia.org/wiki/Station_Herstal",
    "lat": 50.66073327686322,
    "lon": 5.623001394633889,
    "region": "WAL",
    "province": "WLG",
    "city": "62051",
    "telegraphcode": "LHS",
    "opened": 1865,
    "platforms": 2,
    "tracks": null,
    "lines": ["34"]
  },
  {
    "name": "HERZELE",
    "nameClean": "Herzele",
    "url": "https://nl.wikipedia.org/wiki/Station_Herzele",
    "lat": 50.89725263682441,
    "lon": 3.8802699744701385,
    "region": "VLG",
    "province": "VOV",
    "city": "41027",
    "telegraphcode": "FHZ",
    "opened": 1868,
    "platforms": 2,
    "tracks": null,
    "lines": ["89"]
  },
  {
    "name": "HEUSDEN",
    "nameClean": "Heusden",
    "url": "https://nl.wikipedia.org/wiki/Station_Heusden",
    "lat": 51.03821059091015,
    "lon": 5.281285643577576,
    "region": "VLG",
    "province": "VLI",
    "city": "71070",
    "telegraphcode": "MHD",
    "opened": 1933,
    "platforms": 2,
    "tracks": null,
    "lines": ["15"]
  },
  {
    "name": "HEVER",
    "nameClean": "Hever",
    "url": "https://nl.wikipedia.org/wiki/Station_Hever",
    "lat": 50.9977808625155,
    "lon": 4.537818878889084,
    "region": "VLG",
    "province": "VBR",
    "city": "24014",
    "telegraphcode": null,
    "opened": null,
    "platforms": null,
    "tracks": null,
    "lines": ["53"]
  },
  {
    "name": "HEVERLEE",
    "nameClean": "Heverlee",
    "url": "https://nl.wikipedia.org/wiki/Station_Heverlee",
    "lat": 50.862458945548546,
    "lon": 4.695673949449088,
    "region": "VLG",
    "province": "VBR",
    "city": "24062",
    "telegraphcode": "GHE",
    "opened": 1855,
    "platforms": 2,
    "tracks": null,
    "lines": ["139"]
  },
  {
    "name": "HILLEGEM",
    "nameClean": "Hillegem",
    "url": "https://nl.wikipedia.org/wiki/Station_Hillegem",
    "lat": 50.89179356415071,
    "lon": 3.8590977361577643,
    "region": "VLG",
    "province": "VOV",
    "city": "41027",
    "telegraphcode": null,
    "opened": 1895,
    "platforms": null,
    "tracks": 2,
    "lines": ["89"]
  },
  {
    "name": "HOBOKEN-POLDER",
    "nameClean": "Hoboken-Polder",
    "url": "https://nl.wikipedia.org/wiki/Station_Hoboken-Polder",
    "lat": 51.182913243669354,
    "lon": 4.348399402158293,
    "region": "VLG",
    "province": "VAN",
    "city": "11002",
    "telegraphcode": "FOE",
    "opened": 1878,
    "platforms": 2,
    "tracks": null,
    "lines": ["52"]
  },
  {
    "name": "HOEILAART",
    "nameClean": "Hoeilaart",
    "url": "https://nl.wikipedia.org/wiki/Station_Hoeilaart",
    "lat": 50.75985580382101,
    "lon": 4.468173980712891,
    "region": "VLG",
    "province": "VBR",
    "city": "23033",
    "telegraphcode": null,
    "opened": null,
    "platforms": 2,
    "tracks": null,
    "lines": ["161"]
  },
  {
    "name": "HOFSTADE",
    "nameClean": "Hofstade",
    "url": "https://nl.wikipedia.org/wiki/Station_Hofstade",
    "lat": 50.9885,
    "lon": 4.498583,
    "region": "VLG",
    "province": "VBR",
    "city": "23096",
    "telegraphcode": "FHF",
    "opened": 1926,
    "platforms": null,
    "tracks": null,
    "lines": ["27B"]
  },
  {
    "name": "HOLLEKEN",
    "nameClean": "Holleken",
    "url": "https://nl.wikipedia.org/wiki/Station_Holleken",
    "lat": 50.76758256603961,
    "lon": 4.354118594783358,
    "region": "VLG",
    "province": "VBR",
    "city": "23100",
    "telegraphcode": null,
    "opened": null,
    "platforms": 2,
    "tracks": null,
    "lines": ["124"]
  },
  {
    "name": "HONY",
    "nameClean": "Hony",
    "url": "https://nl.wikipedia.org/wiki/Station_Hony",
    "lat": 50.539811817837425,
    "lon": 5.57352605857227,
    "region": "WAL",
    "province": "WLG",
    "city": "62032",
    "telegraphcode": null,
    "opened": null,
    "platforms": null,
    "tracks": null,
    "lines": ["43"]
  },
  {
    "name": "HOURAING",
    "nameClean": "Houraing",
    "url": "https://nl.wikipedia.org/wiki/Station_Houraing",
    "lat": 50.70270609674806,
    "lon": 3.8352544605731964,
    "region": "WAL",
    "province": "WHT",
    "city": "55023",
    "telegraphcode": null,
    "opened": null,
    "platforms": null,
    "tracks": null,
    "lines": ["90"]
  },
  {
    "name": "HOURPES",
    "nameClean": "Hourpes",
    "url": "https://nl.wikipedia.org/wiki/Station_Hourpes",
    "lat": 50.36475900623845,
    "lon": 4.308636879096753,
    "region": "WAL",
    "province": "WHT",
    "city": "56078",
    "telegraphcode": null,
    "opened": null,
    "platforms": null,
    "tracks": null,
    "lines": ["130A"]
  },
  {
    "name": "HOUYET",
    "nameClean": "Houyet",
    "url": "https://nl.wikipedia.org/wiki/Station_Houyet",
    "lat": 50.18958794906571,
    "lon": 5.006088316440582,
    "region": "WAL",
    "province": "WNA",
    "city": "91072",
    "telegraphcode": "MHY",
    "opened": 1894,
    "platforms": 4,
    "tracks": null,
    "lines": ["166"]
  },
  {
    "name": "HOVE",
    "nameClean": "Hove",
    "url": "https://nl.wikipedia.org/wiki/Station_Hove",
    "lat": 51.15410223916141,
    "lon": 4.465173058572304,
    "region": "VLG",
    "province": "VAN",
    "city": "11021",
    "telegraphcode": "MHO",
    "opened": 1888,
    "platforms": 4,
    "tracks": null,
    "lines": ["25", "27"]
  },
  {
    "name": "HUIZINGEN",
    "nameClean": "Huizingen",
    "url": "https://nl.wikipedia.org/wiki/Station_Huizingen",
    "lat": 50.751692123177435,
    "lon": 4.266150845698803,
    "region": "VLG",
    "province": "VBR",
    "city": "23003",
    "telegraphcode": "HUIZ",
    "opened": 1973,
    "platforms": 2,
    "tracks": null,
    "lines": ["26"]
  },
  {
    "name": "HUY",
    "nameClean": "Huy",
    "url": "https://nl.wikipedia.org/wiki/Station_Huy",
    "lat": 50.52662695214841,
    "lon": 5.232909321784973,
    "region": "WAL",
    "province": "WLG",
    "city": "61031",
    "telegraphcode": "LY",
    "opened": 1850,
    "platforms": 4,
    "tracks": null,
    "lines": ["125"]
  },
  {
    "name": "IDDERGEM",
    "nameClean": "Iddergem",
    "url": "https://nl.wikipedia.org/wiki/Station_Iddergem",
    "lat": 50.8772481694641,
    "lon": 4.0687353909015656,
    "region": "VLG",
    "province": "VOV",
    "city": "41011",
    "telegraphcode": null,
    "opened": null,
    "platforms": null,
    "tracks": null,
    "lines": ["90"]
  },
  {
    "name": "IDEGEM",
    "nameClean": "Idegem",
    "url": "https://nl.wikipedia.org/wiki/Station_Idegem",
    "lat": 50.80152916368484,
    "lon": 3.9212635159492493,
    "region": "VLG",
    "province": "VOV",
    "city": "41018",
    "telegraphcode": "FID",
    "opened": null,
    "platforms": null,
    "tracks": 2,
    "lines": ["90"]
  },
  {
    "name": "IEPER",
    "nameClean": "Ieper",
    "url": "https://nl.wikipedia.org/wiki/Station_Ieper",
    "lat": 50.84789641261178,
    "lon": 2.8766772150993347,
    "region": "VLG",
    "province": "VWV",
    "city": "33011",
    "telegraphcode": "FI",
    "opened": 1854,
    "platforms": 3,
    "tracks": null,
    "lines": ["69"]
  },
  {
    "name": "INGELMUNSTER",
    "nameClean": "Ingelmunster",
    "url": "https://nl.wikipedia.org/wiki/Station_Ingelmunster",
    "lat": 50.91380301989739,
    "lon": 3.2557860016822815,
    "region": "VLG",
    "province": "VWV",
    "city": "36007",
    "telegraphcode": "FNM",
    "opened": 1847,
    "platforms": 2,
    "tracks": null,
    "lines": ["66"]
  },
  {
    "name": "IZEGEM",
    "nameClean": "Izegem",
    "url": "https://nl.wikipedia.org/wiki/Station_Izegem",
    "lat": 50.92099218824821,
    "lon": 3.214769661426544,
    "region": "VLG",
    "province": "VWV",
    "city": "36008",
    "telegraphcode": "LZG",
    "opened": 1847,
    "platforms": null,
    "tracks": 2,
    "lines": ["66"]
  },
  {
    "name": "JAMBES",
    "nameClean": "Jambes",
    "url": "https://nl.wikipedia.org/wiki/Station_Jambes",
    "lat": 50.45469659450843,
    "lon": 4.875828176736832,
    "region": "WAL",
    "province": "WNA",
    "city": "92094",
    "telegraphcode": "NJ",
    "opened": 1862,
    "platforms": 3,
    "tracks": null,
    "lines": ["154"]
  },
  {
    "name": "JAMBES-EST",
    "nameClean": "Jambes-Est",
    "url": "https://nl.wikipedia.org/wiki/Station_Jambes-Est",
    "lat": 50.45473897355092,
    "lon": 4.880390707982315,
    "region": "WAL",
    "province": "WNA",
    "city": "92094",
    "telegraphcode": "MJS",
    "opened": 1884,
    "platforms": null,
    "tracks": null,
    "lines": ["162"]
  },
  {
    "name": "JAMIOULX",
    "nameClean": "Jamioulx",
    "url": "https://nl.wikipedia.org/wiki/Station_Jamioulx",
    "lat": 50.35296323226174,
    "lon": 4.411416672009068,
    "region": "WAL",
    "province": "WHT",
    "city": "56086",
    "telegraphcode": "GJ",
    "opened": 1848,
    "platforms": null,
    "tracks": null,
    "lines": ["132"]
  },
  {
    "name": "JEMAPPES",
    "nameClean": "Jemappes",
    "url": "https://nl.wikipedia.org/wiki/Station_Jemappes",
    "lat": 50.452651077384004,
    "lon": 3.8855848403833306,
    "region": "WAL",
    "province": "WHT",
    "city": "53053",
    "telegraphcode": "FJM",
    "opened": 1836,
    "platforms": null,
    "tracks": null,
    "lines": ["97"]
  },
  {
    "name": "ROCHEFORT-JEMELLE",
    "nameClean": "Rochefort-Jemelle",
    "url": "https://nl.wikipedia.org/wiki/Station_Rochefort-Jemelle",
    "lat": 50.16000117440413,
    "lon": 5.26719331741333,
    "region": "WAL",
    "province": "WNA",
    "city": "91114",
    "telegraphcode": "LJ",
    "opened": 1858,
    "platforms": 7,
    "tracks": null,
    "lines": ["162"]
  },
  {
    "name": "JEMEPPE-SUR-MEUSE",
    "nameClean": "Jemeppe-sur-Meuse",
    "url": "https://nl.wikipedia.org/wiki/Station_Jemeppe-sur-Meuse",
    "lat": 50.618584802964165,
    "lon": 5.498125588843209,
    "region": "WAL",
    "province": "WLG",
    "city": "62096",
    "telegraphcode": "LJP",
    "opened": 1850,
    "platforms": 2,
    "tracks": null,
    "lines": ["125"]
  },
  {
    "name": "JEMEPPE-SUR-SAMBRE",
    "nameClean": "Jemeppe-sur-Sambre",
    "url": "https://nl.wikipedia.org/wiki/Station_Jemeppe-sur-Sambre",
    "lat": 50.451486385875945,
    "lon": 4.663082884726464,
    "region": "WAL",
    "province": "WNA",
    "city": "92140",
    "telegraphcode": "FJS",
    "opened": 1872,
    "platforms": null,
    "tracks": null,
    "lines": ["130", "144"]
  },
  {
    "name": "JETTE",
    "nameClean": "Jette",
    "url": "https://nl.wikipedia.org/wiki/Station_Jette",
    "lat": 50.880965,
    "lon": 4.328565,
    "region": "BRU",
    "city": "21010",
    "telegraphcode": "FJT",
    "opened": 1858,
    "platforms": 4,
    "tracks": null,
    "lines": ["50", "60"]
  },
  {
    "name": "JURBISE",
    "nameClean": "Jurbise",
    "url": "https://nl.wikipedia.org/wiki/Station_Jurbise",
    "lat": 50.53018675646194,
    "lon": 3.9104817416207425,
    "region": "WAL",
    "province": "WHT",
    "city": "53044",
    "telegraphcode": "FJR",
    "opened": 1841,
    "platforms": 2,
    "tracks": null,
    "lines": ["96"]
  },
  {
    "name": "JUSLENVILLE",
    "nameClean": "Juslenville",
    "url": "https://nl.wikipedia.org/wiki/Station_Juslenville",
    "lat": 50.54472687366931,
    "lon": 5.810060352087021,
    "region": "WAL",
    "province": "WLG",
    "city": "63076",
    "telegraphcode": "FJL",
    "opened": 1854,
    "platforms": 1,
    "tracks": null,
    "lines": ["44"]
  },
  {
    "name": "KALMTHOUT",
    "nameClean": "Kalmthout",
    "url": "https://nl.wikipedia.org/wiki/Station_Kalmthout",
    "lat": 51.39109645312985,
    "lon": 4.4668248295784,
    "region": "VLG",
    "province": "VAN",
    "city": "11022",
    "telegraphcode": "FKTH",
    "opened": 1854,
    "platforms": 2,
    "tracks": null,
    "lines": ["12"]
  },
  {
    "name": "KAPELLE-OP-DEN-BOS",
    "nameClean": "Kapelle-op-den-Bos",
    "url": "https://nl.wikipedia.org/wiki/Station_Kapelle-op-den-Bos",
    "lat": 51.010894310090784,
    "lon": 4.359218627214432,
    "region": "VLG",
    "province": "VBR",
    "city": "23039",
    "telegraphcode": "FKP",
    "opened": null,
    "platforms": 2,
    "tracks": null,
    "lines": ["53"]
  },
  {
    "name": "KAPELLEN",
    "nameClean": "Kapellen",
    "url": "https://nl.wikipedia.org/wiki/Station_Kapellen",
    "lat": 51.31363862258928,
    "lon": 4.432619959115982,
    "region": "VLG",
    "province": "VAN",
    "city": "11023",
    "telegraphcode": "LKP",
    "opened": 1854,
    "platforms": 3,
    "tracks": 2,
    "lines": ["12"]
  },
  {
    "name": "KESSEL",
    "nameClean": "Kessel",
    "url": "https://nl.wikipedia.org/wiki/Station_Kessel",
    "lat": 51.15115602304731,
    "lon": 4.61880549788475,
    "region": "VLG",
    "province": "VAN",
    "city": "12026",
    "telegraphcode": "LEK",
    "opened": 1894,
    "platforms": 2,
    "tracks": null,
    "lines": ["15"]
  },
  {
    "name": "KIEWIT",
    "nameClean": "Kiewit",
    "url": "https://nl.wikipedia.org/wiki/Station_Kiewit",
    "lat": 50.95451710020448,
    "lon": 5.34889742732048,
    "region": "VLG",
    "province": "VLI",
    "city": "71022",
    "telegraphcode": null,
    "opened": 1972,
    "platforms": null,
    "tracks": 2,
    "lines": ["21A"]
  },
  {
    "name": "KIJKUIT",
    "nameClean": "Kijkuit",
    "url": "https://nl.wikipedia.org/wiki/Station_Kijkuit",
    "lat": 51.379106997750476,
    "lon": 4.467408210039139,
    "region": "VLG",
    "province": "VAN",
    "city": "11022",
    "telegraphcode": "GKT",
    "opened": 1933,
    "platforms": 2,
    "tracks": 2,
    "lines": ["12"]
  },
  {
    "name": "KNOKKE",
    "nameClean": "Knokke",
    "url": "https://nl.wikipedia.org/wiki/Station_Knokke",
    "lat": 51.33992206416406,
    "lon": 3.2854874432086945,
    "region": "VLG",
    "province": "VWV",
    "city": "31043",
    "telegraphcode": "FKK",
    "opened": 1920,
    "platforms": 4,
    "tracks": null,
    "lines": ["51B"]
  },
  {
    "name": "KOKSIJDE",
    "nameClean": "Koksijde",
    "url": "https://nl.wikipedia.org/wiki/Station_Koksijde",
    "lat": 51.07915272891615,
    "lon": 2.6531392335891724,
    "region": "VLG",
    "province": "VWV",
    "city": "38025",
    "telegraphcode": "MX",
    "opened": 1870,
    "platforms": 1,
    "tracks": null,
    "lines": ["73"]
  },
  {
    "name": "COMINES/KOMEN",
    "nameClean": "Komen",
    "url": "https://nl.wikipedia.org/wiki/Station_Komen_(Belgi%C3%AB)",
    "lat": 50.771596702231,
    "lon": 2.9985829442739487,
    "region": "WAL",
    "province": "WHT",
    "city": "54010",
    "telegraphcode": "FOI",
    "opened": 1853,
    "platforms": null,
    "tracks": null,
    "lines": ["69"]
  },
  {
    "name": "KONTICH-LINT",
    "nameClean": "Kontich-Lint",
    "url": "https://nl.wikipedia.org/wiki/Station_Kontich-Lint",
    "lat": 51.13408595439099,
    "lon": 4.476301074028015,
    "region": "VLG",
    "province": "VAN",
    "city": "11024",
    "telegraphcode": "FKI",
    "opened": 1836,
    "platforms": 5,
    "tracks": null,
    "lines": ["13", "25", "27"]
  },
  {
    "name": "KORTEMARK",
    "nameClean": "Kortemark",
    "url": "https://nl.wikipedia.org/wiki/Station_Kortemark",
    "lat": 51.0252229613559,
    "lon": 3.043534755706787,
    "region": "VLG",
    "province": "VWV",
    "city": "32011",
    "telegraphcode": "FTK",
    "opened": 1858,
    "platforms": null,
    "tracks": null,
    "lines": ["63", "73"]
  },
  {
    "name": "KORTENBERG",
    "nameClean": "Kortenberg",
    "url": "https://nl.wikipedia.org/wiki/Station_Kortenberg",
    "lat": 50.89300034432593,
    "lon": 4.543181955814362,
    "region": "VLG",
    "province": "VBR",
    "city": "24055",
    "telegraphcode": "FTB",
    "opened": 1866,
    "platforms": 2,
    "tracks": null,
    "lines": ["36"]
  },
  {
    "name": "KORTRIJK",
    "nameClean": "Kortrijk",
    "url": "https://nl.wikipedia.org/wiki/Station_Kortrijk",
    "lat": 50.82456435922233,
    "lon": 3.264336884021759,
    "region": "VLG",
    "province": "VWV",
    "city": "34022",
    "telegraphcode": "LK",
    "opened": 1839,
    "platforms": 8,
    "tracks": null,
    "lines": ["66", "75"]
  },
  {
    "name": "KWATRECHT",
    "nameClean": "Kwatrecht",
    "url": "https://nl.wikipedia.org/wiki/Station_Kwatrecht",
    "lat": 50.991800561616394,
    "lon": 3.8290706276893616,
    "region": "VLG",
    "province": "VOV",
    "city": "42025",
    "telegraphcode": "FQT",
    "opened": null,
    "platforms": null,
    "tracks": 2,
    "lines": ["50"]
  },
  {
    "name": "LA HULPE",
    "nameClean": "La Hulpe",
    "url": "https://nl.wikipedia.org/wiki/Station_La Hulpe",
    "lat": 50.73823242653264,
    "lon": 4.496852159500122,
    "region": "WAL",
    "province": "WBR",
    "city": "25050",
    "telegraphcode": "ML",
    "opened": null,
    "platforms": null,
    "tracks": null,
    "lines": ["161"]
  },
  {
    "name": "LA LOUVIERE-CENTRE",
    "nameClean": "La Louvière-Centre",
    "url": "https://nl.wikipedia.org/wiki/Station_La Louvière-Centre",
    "lat": 50.47773766019832,
    "lon": 4.180700182914734,
    "region": "WAL",
    "province": "WHT",
    "city": "55022",
    "telegraphcode": "LVR",
    "opened": 1848,
    "platforms": null,
    "tracks": 4,
    "lines": ["112", "116", "118"]
  },
  {
    "name": "LA LOUVIERE-SUD",
    "nameClean": "La Louvière-Sud",
    "url": "https://nl.wikipedia.org/wiki/Station_La Louvière-Sud",
    "lat": 50.46564614998532,
    "lon": 4.1882626712322235,
    "region": "WAL",
    "province": "WHT",
    "city": "55022",
    "telegraphcode": "LVRS",
    "opened": 1983,
    "platforms": null,
    "tracks": null,
    "lines": ["112"]
  },
  {
    "name": "LA ROCHE",
    "nameClean": "La Roche",
    "url": "https://nl.wikipedia.org/wiki/Station_La Roche",
    "lat": 50.61015130664613,
    "lon": 4.539393335580826,
    "region": "WAL",
    "province": "WBR",
    "city": "25023",
    "telegraphcode": "GLR",
    "opened": null,
    "platforms": null,
    "tracks": null,
    "lines": ["140"]
  },
  {
    "name": "LABUISSIERE",
    "nameClean": "Labuissière",
    "url": "https://nl.wikipedia.org/wiki/Station_Labuissière",
    "lat": 50.31614921930346,
    "lon": 4.185774992273991,
    "region": "WAL",
    "province": "WHT",
    "city": "56049",
    "telegraphcode": "NLB",
    "opened": 1852,
    "platforms": null,
    "tracks": 2,
    "lines": ["130A"]
  },
  {
    "name": "LANDEGEM",
    "nameClean": "Landegem",
    "url": "https://nl.wikipedia.org/wiki/Station_Landegem",
    "lat": 51.064748026830884,
    "lon": 3.5757313287957686,
    "region": "VLG",
    "province": "VOV",
    "city": "44083",
    "telegraphcode": "FLM",
    "opened": null,
    "platforms": 2,
    "tracks": 4,
    "lines": ["50A"]
  },
  {
    "name": "LANDELIES",
    "nameClean": "Landelies",
    "url": "https://nl.wikipedia.org/wiki/Station_Landelies",
    "lat": 50.377339842042396,
    "lon": 4.350433051586151,
    "region": "WAL",
    "province": "WHT",
    "city": "52048",
    "telegraphcode": "NL",
    "opened": 1852,
    "platforms": 2,
    "tracks": null,
    "lines": ["130A"]
  },
  {
    "name": "LANDEN",
    "nameClean": "Landen",
    "url": "https://nl.wikipedia.org/wiki/Station_Landen",
    "lat": 50.748004043641814,
    "lon": 5.080108751292414,
    "region": "VLG",
    "province": "VBR",
    "city": "24059",
    "telegraphcode": "FLD",
    "opened": 1838,
    "platforms": 5,
    "tracks": null,
    "lines": ["21", "36"]
  },
  {
    "name": "LANDSKOUTER",
    "nameClean": "Landskouter",
    "url": "https://nl.wikipedia.org/wiki/Station_Landskouter",
    "lat": 50.970570813884095,
    "lon": 3.7913748621940613,
    "region": "VLG",
    "province": "VOV",
    "city": "44052",
    "telegraphcode": null,
    "opened": null,
    "platforms": null,
    "tracks": 2,
    "lines": ["122"]
  },
  {
    "name": "LANGDORP",
    "nameClean": "Langdorp",
    "url": "https://nl.wikipedia.org/wiki/Station_Langdorp",
    "lat": 51.00257551954621,
    "lon": 4.864636659622192,
    "region": "VLG",
    "province": "VBR",
    "city": "24001",
    "telegraphcode": null,
    "opened": null,
    "platforms": null,
    "tracks": null,
    "lines": ["35"]
  },
  {
    "name": "LEBBEKE",
    "nameClean": "Lebbeke",
    "url": "https://nl.wikipedia.org/wiki/Station_Lebbeke",
    "lat": 51.004947767380465,
    "lon": 4.134428054094315,
    "region": "VLG",
    "province": "VOV",
    "city": "42011",
    "telegraphcode": "FEK",
    "opened": 1879,
    "platforms": 2,
    "tracks": null,
    "lines": ["60"]
  },
  {
    "name": "LE CAMPINAIRE",
    "nameClean": "Le Campinaire",
    "url": "https://nl.wikipedia.org/wiki/Station_Le_Campinaire",
    "lat": 50.42406017713951,
    "lon": 4.543496497109004,
    "region": "WAL",
    "province": "WHT",
    "city": "52018",
    "telegraphcode": null,
    "opened": null,
    "platforms": null,
    "tracks": null,
    "lines": ["130"]
  },
  {
    "name": "LEDE",
    "nameClean": "Lede",
    "url": "https://nl.wikipedia.org/wiki/Station_Lede",
    "lat": 50.97060121658084,
    "lon": 3.985545337200165,
    "region": "VLG",
    "province": "VOV",
    "city": "41034",
    "telegraphcode": "FLE",
    "opened": 1856,
    "platforms": null,
    "tracks": 2,
    "lines": ["50"]
  },
  {
    "name": "LEIGNON",
    "nameClean": "Leignon",
    "url": "https://nl.wikipedia.org/wiki/Station_Leignon",
    "lat": 50.267659,
    "lon": 5.10767,
    "region": "WAL",
    "province": "WNA",
    "city": "91030",
    "telegraphcode": "MLG",
    "opened": null,
    "platforms": null,
    "tracks": null,
    "lines": ["162"]
  },
  {
    "name": "LEMAN",
    "nameClean": "Leman",
    "url": "https://nl.wikipedia.org/wiki/Station_Leman",
    "lat": 50.59965886459944,
    "lon": 5.467465377690814,
    "region": "WAL",
    "province": "WLG",
    "city": "62120",
    "telegraphcode": null,
    "opened": null,
    "platforms": 3,
    "tracks": null,
    "lines": ["125"]
  },
  {
    "name": "LEMBEEK",
    "nameClean": "Lembeek",
    "url": "https://nl.wikipedia.org/wiki/Station_Lembeek",
    "lat": 50.71424218483697,
    "lon": 4.22076603778612,
    "region": "VLG",
    "province": "VBR",
    "city": "23027",
    "telegraphcode": "FLB",
    "opened": null,
    "platforms": null,
    "tracks": null,
    "lines": ["96"]
  },
  {
    "name": "LENS",
    "nameClean": "Lens",
    "url": "https://nl.wikipedia.org/wiki/Station_Lens",
    "lat": 50.55892241894711,
    "lon": 3.9033269039759944,
    "region": "WAL",
    "province": "WHT",
    "city": "53046",
    "telegraphcode": "FNE",
    "opened": null,
    "platforms": null,
    "tracks": null,
    "lines": ["90"]
  },
  {
    "name": "LEOPOLDSBURG",
    "nameClean": "Leopoldsburg",
    "url": "https://nl.wikipedia.org/wiki/Station_Leopoldsburg",
    "lat": 51.11747679970673,
    "lon": 5.258093923330307,
    "region": "VLG",
    "province": "VLI",
    "city": "71034",
    "telegraphcode": "LBG",
    "opened": 1878,
    "platforms": null,
    "tracks": null,
    "lines": ["15"]
  },
  {
    "name": "LESSINES",
    "nameClean": "Lessines",
    "url": "https://nl.wikipedia.org/wiki/Station_Lessines",
    "lat": 50.7131186085059,
    "lon": 3.837043626793843,
    "region": "WAL",
    "province": "WHT",
    "city": "55023",
    "telegraphcode": "FLN",
    "opened": 1855,
    "platforms": null,
    "tracks": null,
    "lines": ["90"]
  },
  {
    "name": "LEUVEN",
    "nameClean": "Leuven",
    "url": "https://nl.wikipedia.org/wiki/Station_Leuven",
    "lat": 50.88134113350503,
    "lon": 4.715586304664612,
    "region": "VLG",
    "province": "VBR",
    "city": "24062",
    "telegraphcode": "FLV",
    "opened": 1837,
    "platforms": 13,
    "tracks": 15,
    "lines": ["HSL 2", "35", "36", "36N", "53", "139"]
  },
  {
    "name": "LEUZE",
    "nameClean": "Leuze",
    "url": "https://nl.wikipedia.org/wiki/Station_Leuze",
    "lat": 50.60037846299515,
    "lon": 3.6170071363449097,
    "region": "WAL",
    "province": "WHT",
    "city": "57094",
    "telegraphcode": "FLZ",
    "opened": 1847,
    "platforms": null,
    "tracks": null,
    "lines": ["94"]
  },
  {
    "name": "LEVAL",
    "nameClean": "Leval",
    "url": "https://nl.wikipedia.org/wiki/Station_Leval",
    "lat": 50.429591145028915,
    "lon": 4.210330128998862,
    "region": "WAL",
    "province": "WHT",
    "city": "56011",
    "telegraphcode": "LVL",
    "opened": 1857,
    "platforms": null,
    "tracks": null,
    "lines": ["108"]
  },
  {
    "name": "LIBRAMONT",
    "nameClean": "Libramont",
    "url": "https://nl.wikipedia.org/wiki/Station_Libramont",
    "lat": 49.92025530447924,
    "lon": 5.379348546266556,
    "region": "WAL",
    "province": "WLX",
    "city": "84077",
    "telegraphcode": "LRB",
    "opened": 1858,
    "platforms": 6,
    "tracks": null,
    "lines": ["162", "165"]
  },
  {
    "name": "LICHTERVELDE",
    "nameClean": "Lichtervelde",
    "url": "https://nl.wikipedia.org/wiki/Station_Lichtervelde",
    "lat": 51.0251352346193,
    "lon": 3.127325624227524,
    "region": "VLG",
    "province": "VWV",
    "city": "36011",
    "telegraphcode": "FLC",
    "opened": 1847,
    "platforms": null,
    "tracks": 7,
    "lines": ["66", "73"]
  },
  {
    "name": "LIEDEKERKE",
    "nameClean": "Liedekerke",
    "url": "https://nl.wikipedia.org/wiki/Station_Liedekerke",
    "lat": 50.88284300967269,
    "lon": 4.095397889614105,
    "region": "VLG",
    "province": "VBR",
    "city": "23044",
    "telegraphcode": "LKD",
    "opened": 1889,
    "platforms": 4,
    "tracks": null,
    "lines": ["50"]
  },
  {
    "name": "LIER",
    "nameClean": "Lier",
    "url": "https://nl.wikipedia.org/wiki/Station_Lier",
    "lat": 51.13586325905456,
    "lon": 4.562176018953323,
    "region": "VLG",
    "province": "VAN",
    "city": "12021",
    "telegraphcode": "FLR",
    "opened": 1855,
    "platforms": 5,
    "tracks": null,
    "lines": ["13", "15"]
  },
  {
    "name": "LIERDE",
    "nameClean": "Lierde",
    "url": "https://nl.wikipedia.org/wiki/Station_Lierde",
    "lat": 50.81595626091345,
    "lon": 3.827104678251885,
    "region": "VLG",
    "province": "VOV",
    "city": "45063",
    "telegraphcode": "FRD",
    "opened": 1867,
    "platforms": null,
    "tracks": null,
    "lines": ["122"]
  },
  {
    "name": "LIERS",
    "nameClean": "Liers",
    "url": "https://nl.wikipedia.org/wiki/Station_Liers",
    "lat": 50.69822794668894,
    "lon": 5.568999499082565,
    "region": "WAL",
    "province": "WLG",
    "city": "62051",
    "telegraphcode": "LSL",
    "opened": 1864,
    "platforms": null,
    "tracks": null,
    "lines": ["34"]
  },
  {
    "name": "LIGNY",
    "nameClean": "Ligny",
    "url": "https://nl.wikipedia.org/wiki/Station_Ligny",
    "lat": 50.51177486181524,
    "lon": 4.5659661525291995,
    "region": "WAL",
    "province": "WNA",
    "city": "92114",
    "telegraphcode": "FGY",
    "opened": null,
    "platforms": null,
    "tracks": null,
    "lines": ["140"]
  },
  {
    "name": "LILLOIS",
    "nameClean": "Lillois",
    "url": "https://nl.wikipedia.org/wiki/Station_Lillois",
    "lat": 50.64494748524272,
    "lon": 4.36482846736908,
    "region": "WAL",
    "province": "WBR",
    "city": "25014",
    "telegraphcode": "FOL",
    "opened": 1874,
    "platforms": 2,
    "tracks": null,
    "lines": ["124"]
  },
  {
    "name": "LIMAL",
    "nameClean": "Limal",
    "url": "https://nl.wikipedia.org/wiki/Station_Limal",
    "lat": 50.69121613980592,
    "lon": 4.575330917537258,
    "region": "WAL",
    "province": "WBR",
    "city": "25112",
    "telegraphcode": "GLM",
    "opened": 1855,
    "platforms": 2,
    "tracks": null,
    "lines": ["139"]
  },
  {
    "name": "LINKEBEEK",
    "nameClean": "Linkebeek",
    "url": "https://nl.wikipedia.org/wiki/Station_Linkebeek",
    "lat": 50.773630903671254,
    "lon": 4.339618384838104,
    "region": "VLG",
    "province": "VBR",
    "city": "23100",
    "telegraphcode": "LKN",
    "opened": 1873,
    "platforms": 2,
    "tracks": null,
    "lines": ["124"]
  },
  {
    "name": "LISSEWEGE",
    "nameClean": "Lissewege",
    "url": "https://nl.wikipedia.org/wiki/Station_Lissewege",
    "lat": 51.29471219155607,
    "lon": 3.1945609997114843,
    "region": "VLG",
    "province": "VWV",
    "city": "31005",
    "telegraphcode": "FLW",
    "opened": 1908,
    "platforms": 2,
    "tracks": null,
    "lines": ["51A"]
  },
  {
    "name": "LIEGE-GUILLEMINS",
    "nameClean": "Liège-Guillemins",
    "url": "https://nl.wikipedia.org/wiki/Station_Liège-Guillemins",
    "lat": 50.62443411850872,
    "lon": 5.56670755147934,
    "region": "WAL",
    "province": "WLG",
    "city": "62063",
    "telegraphcode": "FL",
    "opened": 1842,
    "platforms": 9,
    "tracks": null,
    "lines": ["34", "36", "37", "37A", "40", "125"]
  },
  {
    "name": "LIEGE-CARRE",
    "nameClean": "Liège-Carré",
    "url": "https://nl.wikipedia.org/wiki/Station_Liège-Carré",
    "lat": 50.64083,
    "lon": 5.56194,
    "region": "WAL",
    "province": "WLG",
    "city": "62063",
    "telegraphcode": null,
    "opened": 1877,
    "platforms": 2,
    "tracks": 2,
    "lines": ["34"]
  },
  {
    "name": "LIEGE-SAINT-LAMBERT",
    "nameClean": "Liège-Saint-Lambert",
    "url": "https://nl.wikipedia.org/wiki/Station_Liège-Saint-Lambert",
    "lat": 50.646393,
    "lon": 5.570389,
    "region": "WAL",
    "province": "WLG",
    "city": "62063",
    "telegraphcode": "FLGP",
    "opened": 1877,
    "platforms": 4,
    "tracks": null,
    "lines": ["34"]
  },
  {
    "name": "LOBBES",
    "nameClean": "Lobbes",
    "url": "https://nl.wikipedia.org/wiki/Station_Lobbes",
    "lat": 50.34606147331032,
    "lon": 4.261643197337889,
    "region": "WAL",
    "province": "WHT",
    "city": "56044",
    "telegraphcode": "NLS",
    "opened": 1852,
    "platforms": null,
    "tracks": null,
    "lines": ["130"]
  },
  {
    "name": "LODELINSART",
    "nameClean": "Lodelinsart",
    "url": "https://nl.wikipedia.org/wiki/Station_Lodelinsart",
    "lat": 50.43233241976083,
    "lon": 4.462910145521164,
    "region": "WAL",
    "province": "WHT",
    "city": "52011",
    "telegraphcode": "LDS",
    "opened": 1855,
    "platforms": null,
    "tracks": null,
    "lines": ["140"]
  },
  {
    "name": "LOKEREN",
    "nameClean": "Lokeren",
    "url": "https://nl.wikipedia.org/wiki/Station_Lokeren",
    "lat": 51.107402176013,
    "lon": 3.9865297079086304,
    "region": "VLG",
    "province": "VOV",
    "city": "46014",
    "telegraphcode": "FLK",
    "opened": 1847,
    "platforms": null,
    "tracks": 5,
    "lines": ["57", "59"]
  },
  {
    "name": "LOMMEL",
    "nameClean": "Lommel",
    "url": "https://nl.wikipedia.org/wiki/Station_Lommel",
    "lat": 51.21173202398642,
    "lon": 5.31207874417305,
    "region": "VLG",
    "province": "VLI",
    "city": "72020",
    "telegraphcode": "LOL",
    "opened": 1879,
    "platforms": 1,
    "tracks": 1,
    "lines": ["19"]
  },
  {
    "name": "LONDERZEEL",
    "nameClean": "Londerzeel",
    "url": "https://nl.wikipedia.org/wiki/Station_Londerzeel",
    "lat": 51.00927168079465,
    "lon": 4.298568516969681,
    "region": "VLG",
    "province": "VBR",
    "city": "23045",
    "telegraphcode": "FZL",
    "opened": 1837,
    "platforms": 3,
    "tracks": null,
    "lines": ["53"]
  },
  {
    "name": "LONZEE",
    "nameClean": "Lonzée",
    "url": "https://nl.wikipedia.org/wiki/Station_Lonzée",
    "lat": 50.551406426059295,
    "lon": 4.721144915055788,
    "region": "WAL",
    "province": "WNA",
    "city": "92142",
    "telegraphcode": "MLZ",
    "opened": 1886,
    "platforms": null,
    "tracks": null,
    "lines": ["161"]
  },
  {
    "name": "LOT",
    "nameClean": "Lot",
    "url": "https://nl.wikipedia.org/wiki/Station_Lot",
    "lat": 50.76636046352507,
    "lon": 4.273699074983597,
    "region": "VLG",
    "province": "VBR",
    "city": "23003",
    "telegraphcode": "LOT",
    "opened": null,
    "platforms": 2,
    "tracks": null,
    "lines": ["96"]
  },
  {
    "name": "LOUVAIN-LA-NEUVE",
    "nameClean": "Louvain-la-Neuve",
    "url": "https://nl.wikipedia.org/wiki/Station_Louvain-la-Neuve",
    "lat": 50.669695186058625,
    "lon": 4.6160562336444855,
    "region": "WAL",
    "province": "WBR",
    "city": "25121",
    "telegraphcode": "LNO",
    "opened": 1975,
    "platforms": null,
    "tracks": 2,
    "lines": ["161D"]
  },
  {
    "name": "LUSTIN",
    "nameClean": "Lustin",
    "url": "https://nl.wikipedia.org/wiki/Station_Lustin",
    "lat": 50.36897294315933,
    "lon": 4.877159893512726,
    "region": "WAL",
    "province": "WNA",
    "city": "92101",
    "telegraphcode": "NLT",
    "opened": 1862,
    "platforms": null,
    "tracks": null,
    "lines": ["154"]
  },
  {
    "name": "LUTTRE",
    "nameClean": "Luttre",
    "url": "https://nl.wikipedia.org/wiki/Station_Luttre",
    "lat": 50.5062743631915,
    "lon": 4.383960664272308,
    "region": "WAL",
    "province": "WHT",
    "city": "52055",
    "telegraphcode": "FLU",
    "opened": 1843,
    "platforms": null,
    "tracks": null,
    "lines": ["117", "124"]
  },
  {
    "name": "MAFFLE",
    "nameClean": "Maffle",
    "url": "https://nl.wikipedia.org/wiki/Station_Maffle",
    "lat": 50.61448620756759,
    "lon": 3.8000430618790233,
    "region": "WAL",
    "province": "WHT",
    "city": "51004",
    "telegraphcode": "FFA",
    "opened": 1996,
    "platforms": null,
    "tracks": null,
    "lines": ["90"]
  },
  {
    "name": "MALDEREN",
    "nameClean": "Malderen",
    "url": "https://nl.wikipedia.org/wiki/Station_Malderen",
    "lat": 51.014428795902674,
    "lon": 4.229458719491959,
    "region": "VLG",
    "province": "VBR",
    "city": "23045",
    "telegraphcode": "FMD",
    "opened": null,
    "platforms": null,
    "tracks": null,
    "lines": ["53"]
  },
  {
    "name": "MANAGE",
    "nameClean": "Manage",
    "url": "https://nl.wikipedia.org/wiki/Station_Manage",
    "lat": 50.50585113248381,
    "lon": 4.234824382480156,
    "region": "WAL",
    "province": "WHT",
    "city": "52043",
    "telegraphcode": "FMN",
    "opened": 1843,
    "platforms": null,
    "tracks": null,
    "lines": ["117"]
  },
  {
    "name": "MARBEHAN",
    "nameClean": "Marbehan",
    "url": "https://nl.wikipedia.org/wiki/Station_Marbehan",
    "lat": 49.72729850092399,
    "lon": 5.539402636868658,
    "region": "WAL",
    "province": "WLX",
    "city": "85046",
    "telegraphcode": "LMH",
    "opened": 1858,
    "platforms": 3,
    "tracks": null,
    "lines": ["162"]
  },
  {
    "name": "MARCHE-EN-FAMENNE",
    "nameClean": "Marche-en-Famenne",
    "url": "https://nl.wikipedia.org/wiki/Station_Marche-en-Famenne",
    "lat": 50.22239145663752,
    "lon": 5.345786458537532,
    "region": "WAL",
    "province": "WLX",
    "city": "83034",
    "telegraphcode": "MCH",
    "opened": 1865,
    "platforms": null,
    "tracks": null,
    "lines": ["43"]
  },
  {
    "name": "MARCHE-LES-DAMES",
    "nameClean": "Marche-les-Dames",
    "url": "https://nl.wikipedia.org/wiki/Station_Marche-les-Dames",
    "lat": 50.48079803062667,
    "lon": 4.96532678604126,
    "region": "WAL",
    "province": "WNA",
    "city": "92094",
    "telegraphcode": "NMD",
    "opened": 1850,
    "platforms": null,
    "tracks": null,
    "lines": ["125"]
  },
  {
    "name": "MARCHE-LEZ-ECAUSSINNES",
    "nameClean": "Marche-lez-Ecaussinnes",
    "url": "https://nl.wikipedia.org/wiki/Station_Marche-lez-Ecaussinnes",
    "lat": 50.54639893750823,
    "lon": 4.176966547966003,
    "region": "WAL",
    "province": "WHT",
    "city": "55050",
    "telegraphcode": "FCZ",
    "opened": null,
    "platforms": null,
    "tracks": null,
    "lines": ["117"]
  },
  {
    "name": "MARCHIENNE-ZONE",
    "nameClean": "Marchienne-Zône",
    "url": "https://nl.wikipedia.org/wiki/Station_Marchienne-Zône",
    "lat": 50.397874719036054,
    "lon": 4.390414197604741,
    "region": "WAL",
    "province": "WHT",
    "city": "52011",
    "telegraphcode": "NZ",
    "opened": 1852,
    "platforms": null,
    "tracks": null,
    "lines": ["130A"]
  },
  {
    "name": "MARCHIENNE-AU-PONT",
    "nameClean": "Marchienne-au-Pont",
    "url": "https://nl.wikipedia.org/wiki/Station_Marchienne-au-Pont",
    "lat": 50.41217537246747,
    "lon": 4.393986528685673,
    "region": "WAL",
    "province": "WHT",
    "city": "52011",
    "telegraphcode": "FMR",
    "opened": 1843,
    "platforms": 5,
    "tracks": null,
    "lines": ["112", "124"]
  },
  {
    "name": "MARIA-AALTER",
    "nameClean": "Maria-Aalter",
    "url": "https://nl.wikipedia.org/wiki/Station_Maria-Aalter",
    "lat": 51.10767920280319,
    "lon": 3.3862580358982086,
    "region": "VLG",
    "province": "VOV",
    "city": "44084",
    "telegraphcode": "FIA",
    "opened": null,
    "platforms": null,
    "tracks": 2,
    "lines": ["50A"]
  },
  {
    "name": "MARIEMBOURG",
    "nameClean": "Mariembourg",
    "url": "https://nl.wikipedia.org/wiki/Station_Mariembourg",
    "lat": 50.095758068611495,
    "lon": 4.524462819099426,
    "region": "WAL",
    "province": "WNA",
    "city": "93014",
    "telegraphcode": "LMG",
    "opened": 1854,
    "platforms": 4,
    "tracks": null,
    "lines": ["132", "134"]
  },
  {
    "name": "MARLOIE",
    "nameClean": "Marloie",
    "url": "https://nl.wikipedia.org/wiki/Station_Marloie",
    "lat": 50.20251132639345,
    "lon": 5.313960313796997,
    "region": "WAL",
    "province": "WLX",
    "city": "83034",
    "telegraphcode": "MML",
    "opened": 1858,
    "platforms": 4,
    "tracks": null,
    "lines": ["43", "162"]
  },
  {
    "name": "MASNUY-SAINT-PIERRE",
    "nameClean": "Masnuy-Saint-Pierre",
    "url": "https://nl.wikipedia.org/wiki/Station_Masnuy-Saint-Pierre",
    "lat": 50.53641469290898,
    "lon": 3.9616116158773593,
    "region": "WAL",
    "province": "WHT",
    "city": "53044",
    "telegraphcode": "FYP",
    "opened": null,
    "platforms": null,
    "tracks": null,
    "lines": ["96"]
  },
  {
    "name": "MAUBRAY",
    "nameClean": "Maubray",
    "url": "https://nl.wikipedia.org/wiki/Station_Maubray",
    "lat": 50.547614128650125,
    "lon": 3.4956883694635508,
    "region": "WAL",
    "province": "WHT",
    "city": "57003",
    "telegraphcode": "MAU",
    "opened": 1870,
    "platforms": null,
    "tracks": null,
    "lines": ["78"]
  },
  {
    "name": "MAZY",
    "nameClean": "Mazy",
    "url": "https://nl.wikipedia.org/wiki/Station_Mazy",
    "lat": 50.51286836672845,
    "lon": 4.675613885137977,
    "region": "WAL",
    "province": "WNA",
    "city": "92142",
    "telegraphcode": "FZY",
    "opened": 1877,
    "platforms": null,
    "tracks": null,
    "lines": ["144"]
  },
  {
    "name": "MECHELEN",
    "nameClean": "Mechelen",
    "url": "https://nl.wikipedia.org/wiki/Station_Mechelen",
    "lat": 51.017901425296444,
    "lon": 4.483312368392944,
    "region": "VLG",
    "province": "VAN",
    "city": "12025",
    "telegraphcode": "FM",
    "opened": 1835,
    "platforms": 10,
    "tracks": null,
    "lines": ["25", "27", "53", "53A"]
  },
  {
    "name": "MECHELEN-NEKKERSPOEL",
    "nameClean": "Mechelen-Nekkerspoel",
    "url": "https://nl.wikipedia.org/wiki/Station_Mechelen-Nekkerspoel",
    "lat": 51.02951561733609,
    "lon": 4.490361985979234,
    "region": "VLG",
    "province": "VAN",
    "city": "12025",
    "telegraphcode": "LNK",
    "opened": 1903,
    "platforms": 6,
    "tracks": null,
    "lines": ["25", "27", "27B"]
  },
  {
    "name": "MEISER",
    "nameClean": "Meiser",
    "url": "https://nl.wikipedia.org/wiki/Station_Meiser",
    "lat": 50.85515154556487,
    "lon": 4.394288839549517,
    "region": "BRU",
    "city": "21015",
    "telegraphcode": null,
    "opened": 1976,
    "platforms": 2,
    "tracks": null,
    "lines": ["26"]
  },
  {
    "name": "MELKOUWEN",
    "nameClean": "Melkouwen",
    "url": "https://nl.wikipedia.org/wiki/Station_Melkouwen",
    "lat": 51.09490791756928,
    "lon": 4.671542519879836,
    "region": "VLG",
    "province": "VAN",
    "city": "12002",
    "telegraphcode": "MWC",
    "opened": 1899,
    "platforms": null,
    "tracks": null,
    "lines": ["16"]
  },
  {
    "name": "MELLE",
    "nameClean": "Melle",
    "url": "https://nl.wikipedia.org/wiki/Station_Melle",
    "lat": 51.00246960526123,
    "lon": 3.797757178544998,
    "region": "VLG",
    "province": "VOV",
    "city": "44040",
    "telegraphcode": "FML",
    "opened": 1837,
    "platforms": null,
    "tracks": 2,
    "lines": ["50", "122"]
  },
  {
    "name": "MELREUX-HOTTON",
    "nameClean": "Melreux-Hotton",
    "url": "https://nl.wikipedia.org/wiki/Station_Melreux-Hotton",
    "lat": 50.28401864796582,
    "lon": 5.440786246028779,
    "region": "WAL",
    "province": "WLX",
    "city": "83028",
    "telegraphcode": "MLR",
    "opened": 1865,
    "platforms": 2,
    "tracks": null,
    "lines": ["43"]
  },
  {
    "name": "MELSELE",
    "nameClean": "Melsele",
    "url": "https://nl.wikipedia.org/wiki/Station_Melsele",
    "lat": 51.210784411341606,
    "lon": 4.287105457085772,
    "region": "VLG",
    "province": "VOV",
    "city": "46003",
    "telegraphcode": "LM",
    "opened": 1849,
    "platforms": 2,
    "tracks": null,
    "lines": ["59"]
  },
  {
    "name": "MENEN",
    "nameClean": "Menen",
    "url": "https://nl.wikipedia.org/wiki/Station_Menen",
    "lat": 50.79931266428928,
    "lon": 3.1138890981674194,
    "region": "VLG",
    "province": "VWV",
    "city": "34027",
    "telegraphcode": "FME",
    "opened": 1853,
    "platforms": 3,
    "tracks": null,
    "lines": ["69"]
  },
  {
    "name": "MERCHTEM",
    "nameClean": "Merchtem",
    "url": "https://nl.wikipedia.org/wiki/Station_Merchtem",
    "lat": 50.95385476326876,
    "lon": 4.223970919847488,
    "region": "VLG",
    "province": "VBR",
    "city": "23052",
    "telegraphcode": "FMHT",
    "opened": 1879,
    "platforms": 2,
    "tracks": null,
    "lines": ["60"]
  },
  {
    "name": "MERELBEKE",
    "nameClean": "Merelbeke",
    "url": "https://nl.wikipedia.org/wiki/Station_Merelbeke",
    "lat": 51.019944721735655,
    "lon": 3.764311373233795,
    "region": "VLG",
    "province": "VOV",
    "city": "44021",
    "telegraphcode": "FKR",
    "opened": null,
    "platforms": 4,
    "tracks": null,
    "lines": ["50"]
  },
  {
    "name": "MERODE",
    "nameClean": "Merode",
    "url": "https://nl.wikipedia.org/wiki/Station_Merode",
    "lat": 50.83928249412362,
    "lon": 4.398931413888931,
    "region": "BRU",
    "city": "21005",
    "telegraphcode": null,
    "opened": 1976,
    "platforms": null,
    "tracks": null,
    "lines": ["26"]
  },
  {
    "name": "MESSANCY",
    "nameClean": "Messancy",
    "url": "https://nl.wikipedia.org/wiki/Station_Messancy",
    "lat": 49.592766015762614,
    "lon": 5.818644762039185,
    "region": "WAL",
    "province": "WLX",
    "city": "81015",
    "telegraphcode": "MY",
    "opened": 2007,
    "platforms": null,
    "tracks": null,
    "lines": ["167"]
  },
  {
    "name": "MILMORT",
    "nameClean": "Milmort",
    "url": "https://nl.wikipedia.org/wiki/Station_Milmort",
    "lat": 50.6929137685008,
    "lon": 5.600022020302049,
    "region": "WAL",
    "province": "WLG",
    "city": "62051",
    "telegraphcode": "LTM",
    "opened": 1865,
    "platforms": 2,
    "tracks": null,
    "lines": ["34"]
  },
  {
    "name": "MOENSBERG",
    "nameClean": "Moensberg",
    "url": "https://nl.wikipedia.org/wiki/Station_Moensberg",
    "lat": 50.778661196880634,
    "lon": 4.331728911345863,
    "region": "BRU",
    "city": "21016",
    "telegraphcode": null,
    "opened": 1973,
    "platforms": 2,
    "tracks": null,
    "lines": ["26"]
  },
  {
    "name": "MOUSCRON/MOESKROEN",
    "nameClean": "Moeskroen",
    "url": "https://nl.wikipedia.org/wiki/Station_Moeskroen",
    "lat": 50.74011202895435,
    "lon": 3.2274165192577584,
    "region": "WAL",
    "province": "WHT",
    "city": "54007",
    "telegraphcode": "FMC",
    "opened": 1842,
    "platforms": 3,
    "tracks": 5,
    "lines": ["75", "75A"]
  },
  {
    "name": "MOL",
    "nameClean": "Mol",
    "url": "https://nl.wikipedia.org/wiki/Station_Mol",
    "lat": 51.19052569373682,
    "lon": 5.115169733762741,
    "region": "VLG",
    "province": "VAN",
    "city": "13025",
    "telegraphcode": "LML",
    "opened": 1878,
    "platforms": null,
    "tracks": 4,
    "lines": ["15", "19"]
  },
  {
    "name": "MOLLEM",
    "nameClean": "Mollem",
    "url": "https://nl.wikipedia.org/wiki/Station_Mollem",
    "lat": 50.93295540202679,
    "lon": 4.216806440805158,
    "region": "VLG",
    "province": "VBR",
    "city": "23002",
    "telegraphcode": "LHL",
    "opened": 1879,
    "platforms": null,
    "tracks": 2,
    "lines": ["60"]
  },
  {
    "name": "MOMALLE",
    "nameClean": "Momalle",
    "url": "https://nl.wikipedia.org/wiki/Station_Momalle",
    "lat": 50.66998889517638,
    "lon": 5.366858377172207,
    "region": "WAL",
    "province": "WLG",
    "city": "64025",
    "telegraphcode": "MO",
    "opened": 1890,
    "platforms": null,
    "tracks": 2,
    "lines": ["36"]
  },
  {
    "name": "MONS",
    "nameClean": "Mons",
    "url": "https://nl.wikipedia.org/wiki/Station_Mons",
    "lat": 50.453836317362146,
    "lon": 3.9423704892396927,
    "region": "WAL",
    "province": "WHT",
    "city": "53053",
    "telegraphcode": "FMS",
    "opened": 1841,
    "platforms": null,
    "tracks": 7,
    "lines": ["96", "97", "118"]
  },
  {
    "name": "MONT-SAINT-GUIBERT",
    "nameClean": "Mont-Saint-Guibert",
    "url": "https://nl.wikipedia.org/wiki/Station_Mont-Saint-Guibert",
    "lat": 50.63825965689229,
    "lon": 4.612903739362423,
    "region": "WAL",
    "province": "WBR",
    "city": "25068",
    "telegraphcode": "MM",
    "opened": 1855,
    "platforms": null,
    "tracks": 3,
    "lines": ["161"]
  },
  {
    "name": "MOORTSELE",
    "nameClean": "Moortsele",
    "url": "https://nl.wikipedia.org/wiki/Station_Moortsele",
    "lat": 50.953571585679086,
    "lon": 3.781261571283494,
    "region": "VLG",
    "province": "VOV",
    "city": "44052",
    "telegraphcode": "FZM",
    "opened": 1867,
    "platforms": null,
    "tracks": 2,
    "lines": ["122"]
  },
  {
    "name": "MORLANWELZ",
    "nameClean": "Morlanwelz",
    "url": "https://nl.wikipedia.org/wiki/Station_Morlanwelz",
    "lat": 50.45835611977733,
    "lon": 4.247033894062042,
    "region": "WAL",
    "province": "WHT",
    "city": "56087",
    "telegraphcode": "LMZ",
    "opened": 1865,
    "platforms": null,
    "tracks": null,
    "lines": ["112"]
  },
  {
    "name": "MORTSEL",
    "nameClean": "Mortsel",
    "url": "https://nl.wikipedia.org/wiki/Station_Mortsel",
    "lat": 51.18289615506257,
    "lon": 4.44910095423586,
    "region": "VLG",
    "province": "VAN",
    "city": "11029",
    "telegraphcode": "GMO",
    "opened": 1895,
    "platforms": null,
    "tracks": 2,
    "lines": ["27"]
  },
  {
    "name": "MORTSEL-DEURNESTEENWEG",
    "nameClean": "Mortsel-Deurnesteenweg",
    "url": "https://nl.wikipedia.org/wiki/Station_Mortsel-Deurnesteenweg",
    "lat": 51.18238795917669,
    "lon": 4.447258785367012,
    "region": "VLG",
    "province": "VAN",
    "city": "11029",
    "telegraphcode": null,
    "opened": 1933,
    "platforms": null,
    "tracks": null,
    "lines": ["25"]
  },
  {
    "name": "MORTSEL-LIERSESTEENWEG",
    "nameClean": "Mortsel-Liersesteenweg",
    "url": "https://nl.wikipedia.org/wiki/Station_Mortsel-Liersesteenweg",
    "lat": 51.16951351826775,
    "lon": 4.469275698065758,
    "region": "VLG",
    "province": "VAN",
    "city": "11029",
    "telegraphcode": null,
    "opened": 2008,
    "platforms": null,
    "tracks": 2,
    "lines": ["27"]
  },
  {
    "name": "MORTSEL-OUDE-GOD",
    "nameClean": "Mortsel-Oude-God",
    "url": "https://nl.wikipedia.org/wiki/Station_Mortsel-Oude-God",
    "lat": 51.17116963557114,
    "lon": 4.455787539482117,
    "region": "VLG",
    "province": "VAN",
    "city": "11029",
    "telegraphcode": "GMOG",
    "opened": 1836,
    "platforms": null,
    "tracks": 2,
    "lines": ["25"]
  },
  {
    "name": "MOUSTIER",
    "nameClean": "Moustier",
    "url": "https://nl.wikipedia.org/wiki/Station_Moustier",
    "lat": 50.452929060247264,
    "lon": 4.694375395774841,
    "region": "WAL",
    "province": "WNA",
    "city": "92140",
    "telegraphcode": "FMT",
    "opened": 1843,
    "platforms": null,
    "tracks": 2,
    "lines": ["130"]
  },
  {
    "name": "MUIZEN",
    "nameClean": "Muizen",
    "url": "https://nl.wikipedia.org/wiki/Station_Muizen",
    "lat": 51.00831546382005,
    "lon": 4.513982716474743,
    "region": "VLG",
    "province": "VAN",
    "city": "12025",
    "telegraphcode": "FIZ",
    "opened": 1887,
    "platforms": null,
    "tracks": 5,
    "lines": ["27B", "53"]
  },
  {
    "name": "MUNKZWALM",
    "nameClean": "Munkzwalm",
    "url": "https://nl.wikipedia.org/wiki/Station_Munkzwalm",
    "lat": 50.875634890413316,
    "lon": 3.732717797649002,
    "region": "VLG",
    "province": "VOV",
    "city": "45065",
    "telegraphcode": "MNK",
    "opened": 1868,
    "platforms": null,
    "tracks": null,
    "lines": ["89"]
  },
  {
    "name": "MERY",
    "nameClean": "Méry",
    "url": "https://nl.wikipedia.org/wiki/Station_Méry",
    "lat": 50.54760820667094,
    "lon": 5.587188899517059,
    "region": "WAL",
    "province": "WLG",
    "city": "62032",
    "telegraphcode": null,
    "opened": null,
    "platforms": null,
    "tracks": null,
    "lines": ["43"]
  },
  {
    "name": "MEVERGNIES-ATTRE",
    "nameClean": "Mévergnies-Attre",
    "url": "https://nl.wikipedia.org/wiki/Station_Mévergnies-Attre",
    "lat": 50.59981834827771,
    "lon": 3.8346657156944275,
    "region": "WAL",
    "province": "WHT",
    "city": "51012",
    "telegraphcode": "FEV",
    "opened": null,
    "platforms": null,
    "tracks": null,
    "lines": ["90"]
  },
  {
    "name": "NAMUR",
    "nameClean": "Namur",
    "url": "https://nl.wikipedia.org/wiki/Station_Namur",
    "lat": 50.469083744802425,
    "lon": 4.862456023693085,
    "region": "WAL",
    "province": "WNA",
    "city": "92094",
    "telegraphcode": "FNR",
    "opened": 1843,
    "platforms": 5,
    "tracks": 14,
    "lines": ["125", "130", "154", "161", "162"]
  },
  {
    "name": "NAMECHE",
    "nameClean": "Namêche",
    "url": "https://nl.wikipedia.org/wiki/Station_Namêche",
    "lat": 50.470181468897415,
    "lon": 4.997507929801941,
    "region": "WAL",
    "province": "WNA",
    "city": "92003",
    "telegraphcode": "NMH",
    "opened": null,
    "platforms": null,
    "tracks": null,
    "lines": ["125"]
  },
  {
    "name": "NANINNE",
    "nameClean": "Naninne",
    "url": "https://nl.wikipedia.org/wiki/Station_Naninne",
    "lat": 50.41965423848605,
    "lon": 4.929891189105774,
    "region": "WAL",
    "province": "WNA",
    "city": "92094",
    "telegraphcode": "MNN",
    "opened": null,
    "platforms": null,
    "tracks": null,
    "lines": ["162"]
  },
  {
    "name": "NATOYE",
    "nameClean": "Natoye",
    "url": "https://nl.wikipedia.org/wiki/Station_Natoye",
    "lat": 50.34305908219549,
    "lon": 5.061241895377634,
    "region": "WAL",
    "province": "WNA",
    "city": "91059",
    "telegraphcode": "MNT",
    "opened": null,
    "platforms": null,
    "tracks": null,
    "lines": ["162"]
  },
  {
    "name": "NEERPELT",
    "nameClean": "Neerpelt",
    "url": "https://nl.wikipedia.org/wiki/Station_Neerpelt",
    "lat": 51.2212824391628,
    "lon": 5.436975806951523,
    "region": "VLG",
    "province": "VLI",
    "city": "72043",
    "telegraphcode": "LNP",
    "opened": 1866,
    "platforms": 2,
    "tracks": 3,
    "lines": ["19"]
  },
  {
    "name": "NEERWINDEN",
    "nameClean": "Neerwinden",
    "url": "https://nl.wikipedia.org/wiki/Station_Neerwinden",
    "lat": 50.76381241104131,
    "lon": 5.036574351443733,
    "region": "VLG",
    "province": "VBR",
    "city": "24059",
    "telegraphcode": "FWI",
    "opened": null,
    "platforms": null,
    "tracks": null,
    "lines": ["36"]
  },
  {
    "name": "NESSONVAUX",
    "nameClean": "Nessonvaux",
    "url": "https://nl.wikipedia.org/wiki/Station_Nessonvaux",
    "lat": 50.57204262120168,
    "lon": 5.742188358949761,
    "region": "WAL",
    "province": "WLG",
    "city": "62122",
    "telegraphcode": "FNV",
    "opened": 1843,
    "platforms": null,
    "tracks": null,
    "lines": ["37"]
  },
  {
    "name": "NEUFCHATEAU",
    "nameClean": "Neufchâteau",
    "url": "https://nl.wikipedia.org/wiki/Station_Neufchâteau",
    "lat": 49.85414430801759,
    "lon": 5.452754953084423,
    "region": "WAL",
    "province": "WLX",
    "city": "84043",
    "telegraphcode": "LNG",
    "opened": 1858,
    "platforms": null,
    "tracks": null,
    "lines": ["162"]
  },
  {
    "name": "NEUFVILLES",
    "nameClean": "Neufvilles",
    "url": "https://nl.wikipedia.org/wiki/Station_Neufvilles",
    "lat": 50.543438270259074,
    "lon": 4.010299444198608,
    "region": "WAL",
    "province": "WHT",
    "city": "55040",
    "telegraphcode": "FFV",
    "opened": null,
    "platforms": null,
    "tracks": null,
    "lines": ["96"]
  },
  {
    "name": "NIEL",
    "nameClean": "Niel",
    "url": "https://nl.wikipedia.org/wiki/Station_Niel",
    "lat": 51.11159613336967,
    "lon": 4.3385910987854,
    "region": "VLG",
    "province": "VAN",
    "city": "11030",
    "telegraphcode": "LNI",
    "opened": 1879,
    "platforms": 2,
    "tracks": null,
    "lines": ["52"]
  },
  {
    "name": "NIEUWKERKEN-WAAS",
    "nameClean": "Nieuwkerken-Waas",
    "url": "https://nl.wikipedia.org/wiki/Station_Nieuwkerken-Waas",
    "lat": 51.18538562490696,
    "lon": 4.1850686577091665,
    "region": "VLG",
    "province": "VOV",
    "city": "46021",
    "telegraphcode": "FNU",
    "opened": 1849,
    "platforms": null,
    "tracks": 2,
    "lines": ["59"]
  },
  {
    "name": "NIJLEN",
    "nameClean": "Nijlen",
    "url": "https://nl.wikipedia.org/wiki/Station_Nijlen",
    "lat": 51.159856905311365,
    "lon": 4.666635990142822,
    "region": "VLG",
    "province": "VAN",
    "city": "12026",
    "telegraphcode": "FJE",
    "opened": 1855,
    "platforms": 2,
    "tracks": 2,
    "lines": ["15"]
  },
  {
    "name": "NIMY",
    "nameClean": "Nimy",
    "url": "https://nl.wikipedia.org/wiki/Station_Nimy",
    "lat": 50.47160407016153,
    "lon": 3.955818209147651,
    "region": "WAL",
    "province": "WHT",
    "city": "53053",
    "telegraphcode": "LNM",
    "opened": 1849,
    "platforms": null,
    "tracks": null,
    "lines": ["118"]
  },
  {
    "name": "NINOVE",
    "nameClean": "Ninove",
    "url": "https://nl.wikipedia.org/wiki/Station_Ninove",
    "lat": 50.83924339153679,
    "lon": 4.026279454220912,
    "region": "VLG",
    "province": "VOV",
    "city": "41048",
    "telegraphcode": "FNN",
    "opened": 1855,
    "platforms": null,
    "tracks": 2,
    "lines": ["90"]
  },
  {
    "name": "NIVELLES",
    "nameClean": "Nivelles",
    "url": "https://nl.wikipedia.org/wiki/Station_Nivelles",
    "lat": 50.59988312105609,
    "lon": 4.335034181930837,
    "region": "WAL",
    "province": "WBR",
    "city": "25072",
    "telegraphcode": "FNVT",
    "opened": 1874,
    "platforms": 3,
    "tracks": null,
    "lines": ["124"]
  },
  {
    "name": "NOORDERKEMPEN",
    "nameClean": "Noorderkempen",
    "url": "https://nl.wikipedia.org/wiki/Station_Noorderkempen",
    "lat": 51.35729697068092,
    "lon": 4.632789194583893,
    "region": "VLG",
    "province": "VAN",
    "city": "11009",
    "telegraphcode": "NDK",
    "opened": 2009,
    "platforms": 2,
    "tracks": 4,
    "lines": ["HSL 4"]
  },
  {
    "name": "NOSSEGEM",
    "nameClean": "Nossegem",
    "url": "https://nl.wikipedia.org/wiki/Station_Nossegem",
    "lat": 50.88373988164852,
    "lon": 4.5074911415576935,
    "region": "VLG",
    "province": "VBR",
    "city": "23094",
    "telegraphcode": "LEM",
    "opened": 1866,
    "platforms": 2,
    "tracks": null,
    "lines": ["36"]
  },
  {
    "name": "OBAIX-BUZET",
    "nameClean": "Obaix-Buzet",
    "url": "https://nl.wikipedia.org/wiki/Station_Obaix-Buzet",
    "lat": 50.535435337116816,
    "lon": 4.36378669051885,
    "region": "WAL",
    "province": "WHT",
    "city": "52055",
    "telegraphcode": " Obaix",
    "opened": null,
    "platforms": 1874,
    "tracks": null,
    "lines": []
  },
  {
    "name": "OBOURG",
    "nameClean": "Obourg",
    "url": "https://nl.wikipedia.org/wiki/Station_Obourg",
    "lat": 50.46988481814932,
    "lon": 4.007379630700143,
    "region": "WAL",
    "province": "WHT",
    "city": "53053",
    "telegraphcode": "LRG",
    "opened": 1849,
    "platforms": null,
    "tracks": null,
    "lines": ["118"]
  },
  {
    "name": "OKEGEM",
    "nameClean": "Okegem",
    "url": "https://nl.wikipedia.org/wiki/Station_Okegem",
    "lat": 50.85652284449257,
    "lon": 4.053736807034966,
    "region": "VLG",
    "province": "VOV",
    "city": "41048",
    "telegraphcode": "FKO",
    "opened": 1869,
    "platforms": null,
    "tracks": null,
    "lines": ["90"]
  },
  {
    "name": "OLEN",
    "nameClean": "Olen",
    "url": "https://nl.wikipedia.org/wiki/Station_Olen",
    "lat": 51.17403775681645,
    "lon": 4.9018245051232725,
    "region": "VLG",
    "province": "VAN",
    "city": "13029",
    "telegraphcode": "GOL",
    "opened": 1878,
    "platforms": 2,
    "tracks": null,
    "lines": ["15"]
  },
  {
    "name": "OOSTENDE",
    "nameClean": "Oostende",
    "url": "https://nl.wikipedia.org/wiki/Station_Oostende",
    "lat": 51.22925290212333,
    "lon": 2.9257629811763763,
    "region": "VLG",
    "province": "VWV",
    "city": "35013",
    "telegraphcode": "FSD",
    "opened": 1871,
    "platforms": null,
    "tracks": 11,
    "lines": ["50A"]
  },
  {
    "name": "OOSTKAMP",
    "nameClean": "Oostkamp",
    "url": "https://nl.wikipedia.org/wiki/Station_Oostkamp",
    "lat": 51.15429377218359,
    "lon": 3.257331795218306,
    "region": "VLG",
    "province": "VWV",
    "city": "31022",
    "telegraphcode": "FPO",
    "opened": null,
    "platforms": 2,
    "tracks": null,
    "lines": ["50A"]
  },
  {
    "name": "OPWIJK",
    "nameClean": "Opwijk",
    "url": "https://nl.wikipedia.org/wiki/Station_Opwijk",
    "lat": 50.97470708684202,
    "lon": 4.187071770429611,
    "region": "VLG",
    "province": "VBR",
    "city": "23060",
    "telegraphcode": "FKW",
    "opened": 1879,
    "platforms": 3,
    "tracks": null,
    "lines": ["60"]
  },
  {
    "name": "OTTIGNIES",
    "nameClean": "Ottignies",
    "url": "https://nl.wikipedia.org/wiki/Station_Ottignies",
    "lat": 50.67347834563216,
    "lon": 4.5695152328466975,
    "region": "WAL",
    "province": "WBR",
    "city": "25121",
    "telegraphcode": "LT",
    "opened": 1855,
    "platforms": null,
    "tracks": null,
    "lines": ["139", "140", "161"]
  },
  {
    "name": "OUD-HEVERLEE",
    "nameClean": "Oud-Heverlee",
    "url": "https://nl.wikipedia.org/wiki/Station_Oud-Heverlee",
    "lat": 50.835523313317864,
    "lon": 4.65328055814166,
    "region": "VLG",
    "province": "VBR",
    "city": "24086",
    "telegraphcode": "GVH",
    "opened": 1855,
    "platforms": 2,
    "tracks": null,
    "lines": ["139"]
  },
  {
    "name": "OUDEGEM",
    "nameClean": "Oudegem",
    "url": "https://nl.wikipedia.org/wiki/Station_Oudegem",
    "lat": 51.01515354736891,
    "lon": 4.064032137393951,
    "region": "VLG",
    "province": "VOV",
    "city": "42006",
    "telegraphcode": "FDM",
    "opened": null,
    "platforms": 2,
    "tracks": null,
    "lines": ["53"]
  },
  {
    "name": "OUDENAARDE",
    "nameClean": "Oudenaarde",
    "url": "https://nl.wikipedia.org/wiki/Station_Oudenaarde",
    "lat": 50.85017072300418,
    "lon": 3.6008012294769287,
    "region": "VLG",
    "province": "VOV",
    "city": "45035",
    "telegraphcode": "FDN",
    "opened": 1857,
    "platforms": 2,
    "tracks": 5,
    "lines": ["86", "89"]
  },
  {
    "name": "OUGREE",
    "nameClean": "Ougrée",
    "url": "https://nl.wikipedia.org/wiki/Station_Ougrée",
    "lat": 50.605418,
    "lon": 5.536818,
    "region": "WAL",
    "province": "WLG",
    "city": "62096",
    "telegraphcode": "LGR",
    "opened": 1851,
    "platforms": null,
    "tracks": null,
    "lines": ["125A"]
  },
  {
    "name": "OVERPELT",
    "nameClean": "Overpelt",
    "url": "https://nl.wikipedia.org/wiki/Station_Overpelt",
    "lat": 51.215590566384996,
    "lon": 5.423602312803268,
    "region": "VLG",
    "province": "VLI",
    "city": "72043",
    "telegraphcode": null,
    "opened": 1911,
    "platforms": 1,
    "tracks": null,
    "lines": ["19"]
  },
  {
    "name": "PALISEUL",
    "nameClean": "Paliseul",
    "url": "https://nl.wikipedia.org/wiki/Station_Paliseul",
    "lat": 49.895271657712506,
    "lon": 5.1185086286642445,
    "region": "WAL",
    "province": "WLX",
    "city": "84050",
    "telegraphcode": "MPL",
    "opened": 1880,
    "platforms": null,
    "tracks": null,
    "lines": ["166"]
  },
  {
    "name": "PAPIGNIES",
    "nameClean": "Papignies",
    "url": "https://nl.wikipedia.org/wiki/Station_Papignies",
    "lat": 50.68636784295914,
    "lon": 3.8231660585722693,
    "region": "WAL",
    "province": "WHT",
    "city": "55023",
    "telegraphcode": "FAP",
    "opened": 1855,
    "platforms": null,
    "tracks": null,
    "lines": ["90"]
  },
  {
    "name": "PEPINSTER",
    "nameClean": "Pepinster",
    "url": "https://nl.wikipedia.org/wiki/Station_Pepinster",
    "lat": 50.56813377955549,
    "lon": 5.806370973587036,
    "region": "WAL",
    "province": "WLG",
    "city": "63058",
    "telegraphcode": "FPS",
    "opened": 1843,
    "platforms": null,
    "tracks": null,
    "lines": ["37", "44"]
  },
  {
    "name": "PEPINSTER-CITE",
    "nameClean": "Pepinster-Cité",
    "url": "https://nl.wikipedia.org/wiki/Station_Pepinster-Cité",
    "lat": 50.56356441596788,
    "lon": 5.804359316825867,
    "region": "WAL",
    "province": "WLG",
    "city": "63058",
    "telegraphcode": null,
    "opened": null,
    "platforms": null,
    "tracks": null,
    "lines": ["44"]
  },
  {
    "name": "PHILIPPEVILLE",
    "nameClean": "Philippeville",
    "url": "https://nl.wikipedia.org/wiki/Station_Philippeville",
    "lat": 50.191547046096765,
    "lon": 4.536182317502494,
    "region": "WAL",
    "province": "WNA",
    "city": "93056",
    "telegraphcode": "GPL",
    "opened": 1854,
    "platforms": null,
    "tracks": null,
    "lines": ["132"]
  },
  {
    "name": "PIETON",
    "nameClean": "Piéton",
    "url": "https://nl.wikipedia.org/wiki/Station_Piéton",
    "lat": 50.43502798862715,
    "lon": 4.288794547319412,
    "region": "WAL",
    "province": "WHT",
    "city": "52010",
    "telegraphcode": "LPT",
    "opened": 1865,
    "platforms": null,
    "tracks": null,
    "lines": ["112"]
  },
  {
    "name": "POIX-SAINT-HUBERT",
    "nameClean": "Poix-Saint-Hubert",
    "url": "https://nl.wikipedia.org/wiki/Station_Poix-Saint-Hubert",
    "lat": 50.02004374147631,
    "lon": 5.292145907878876,
    "region": "WAL",
    "province": "WLX",
    "city": "84059",
    "telegraphcode": "MPX",
    "opened": 1858,
    "platforms": null,
    "tracks": null,
    "lines": ["162"]
  },
  {
    "name": "PONT-DE-SERAING",
    "nameClean": "Pont-de-Seraing",
    "url": "https://nl.wikipedia.org/wiki/Station_Pont-de-Seraing",
    "lat": 50.61972,
    "lon": 5.50972,
    "region": "WAL",
    "province": "WLG",
    "city": "62096",
    "telegraphcode": null,
    "opened": null,
    "platforms": 2,
    "tracks": null,
    "lines": ["125"]
  },
  {
    "name": "PONT-A-CELLES",
    "nameClean": "Pont-à-Celles",
    "url": "https://nl.wikipedia.org/wiki/Station_Pont-à-Celles",
    "lat": 50.512819787993,
    "lon": 4.362410816550209,
    "region": "WAL",
    "province": "WHT",
    "city": "52055",
    "telegraphcode": "FPN",
    "opened": null,
    "platforms": null,
    "tracks": null,
    "lines": ["117"]
  },
  {
    "name": "POPERINGE",
    "nameClean": "Poperinge",
    "url": "https://nl.wikipedia.org/wiki/Station_Poperinge",
    "lat": 50.854547146067716,
    "lon": 2.736007422208786,
    "region": "VLG",
    "province": "VWV",
    "city": "33021",
    "telegraphcode": "FPP",
    "opened": 1854,
    "platforms": 3,
    "tracks": null,
    "lines": ["69"]
  },
  {
    "name": "POULSEUR",
    "nameClean": "Poulseur",
    "url": "https://nl.wikipedia.org/wiki/Station_Poulseur",
    "lat": 50.50887673010024,
    "lon": 5.578297408275148,
    "region": "WAL",
    "province": "WLG",
    "city": "62026",
    "telegraphcode": "MPS",
    "opened": 1866,
    "platforms": 2,
    "tracks": null,
    "lines": ["43"]
  },
  {
    "name": "PROFONDSART",
    "nameClean": "Profondsart",
    "url": "https://nl.wikipedia.org/wiki/Station_Profondsart",
    "lat": 50.69913091614475,
    "lon": 4.545889645814896,
    "region": "WAL",
    "province": "WBR",
    "city": "25112",
    "telegraphcode": null,
    "opened": 1889,
    "platforms": null,
    "tracks": null,
    "lines": ["161"]
  },
  {
    "name": "PRY",
    "nameClean": "Pry",
    "url": "https://nl.wikipedia.org/wiki/Station_Pry",
    "lat": 50.269327717785686,
    "lon": 4.429016605863126,
    "region": "WAL",
    "province": "WNA",
    "city": "93088",
    "telegraphcode": "PRY",
    "opened": null,
    "platforms": null,
    "tracks": null,
    "lines": ["132"]
  },
  {
    "name": "PUURS",
    "nameClean": "Puurs",
    "url": "https://nl.wikipedia.org/wiki/Station_Puurs",
    "lat": 51.07715501446895,
    "lon": 4.282700568437576,
    "region": "VLG",
    "province": "VAN",
    "city": "12041",
    "telegraphcode": "FRP",
    "opened": 1870,
    "platforms": null,
    "tracks": null,
    "lines": ["52", "54"]
  },
  {
    "name": "PECROT",
    "nameClean": "Pécrot",
    "url": "https://nl.wikipedia.org/wiki/Station_Pécrot",
    "lat": 50.7783672775597,
    "lon": 4.651469439268112,
    "region": "WAL",
    "province": "WBR",
    "city": "25037",
    "telegraphcode": null,
    "opened": null,
    "platforms": 2,
    "tracks": null,
    "lines": ["139"]
  },
  {
    "name": "PERUWELZ",
    "nameClean": "Péruwelz",
    "url": "https://nl.wikipedia.org/wiki/Station_Péruwelz",
    "lat": 50.513514826114665,
    "lon": 3.5916703236193825,
    "region": "WAL",
    "province": "WHT",
    "city": "57064",
    "telegraphcode": "FPL",
    "opened": 1867,
    "platforms": null,
    "tracks": null,
    "lines": ["78"]
  },
  {
    "name": "QUAREGNON",
    "nameClean": "Quaregnon",
    "url": "https://nl.wikipedia.org/wiki/Station_Quaregnon",
    "lat": 50.449733668882665,
    "lon": 3.856380879878998,
    "region": "WAL",
    "province": "WHT",
    "city": "53065",
    "telegraphcode": "FQR",
    "opened": 1842,
    "platforms": 2,
    "tracks": null,
    "lines": ["97"]
  },
  {
    "name": "QUIEVRAIN",
    "nameClean": "Quiévrain",
    "url": "https://nl.wikipedia.org/wiki/Station_Quiévrain",
    "lat": 50.41034443149207,
    "lon": 3.6865486300421253,
    "region": "WAL",
    "province": "WHT",
    "city": "53068",
    "telegraphcode": "FQ",
    "opened": 1842,
    "platforms": 2,
    "tracks": null,
    "lines": ["97"]
  },
  {
    "name": "QUEVY",
    "nameClean": "Quévy",
    "url": "https://nl.wikipedia.org/wiki/Station_Quévy",
    "lat": 50.34136077996595,
    "lon": 3.9092713594436646,
    "region": "WAL",
    "province": "WHT",
    "city": "53084",
    "telegraphcode": "LQV",
    "opened": 1857,
    "platforms": 2,
    "tracks": null,
    "lines": ["96"]
  },
  {
    "name": "REBAIX",
    "nameClean": "Rebaix",
    "url": "https://nl.wikipedia.org/wiki/Station_Rebaix",
    "lat": 50.66130303463083,
    "lon": 3.7937900884946885,
    "region": "WAL",
    "province": "WHT",
    "city": "51004",
    "telegraphcode": "FXR",
    "opened": null,
    "platforms": null,
    "tracks": null,
    "lines": ["90"]
  },
  {
    "name": "REMICOURT",
    "nameClean": "Remicourt",
    "url": "https://nl.wikipedia.org/wiki/Station_Remicourt",
    "lat": 50.67864970789797,
    "lon": 5.320724844932556,
    "region": "WAL",
    "province": "WLG",
    "city": "64063",
    "telegraphcode": "FMU",
    "opened": 1864,
    "platforms": 2,
    "tracks": null,
    "lines": ["36"]
  },
  {
    "name": "RHISNES",
    "nameClean": "Rhisnes",
    "url": "https://nl.wikipedia.org/wiki/Station_Rhisnes",
    "lat": 50.49924395753672,
    "lon": 4.802127778530121,
    "region": "WAL",
    "province": "WNA",
    "city": "92141",
    "telegraphcode": "MRN",
    "opened": 1855,
    "platforms": null,
    "tracks": null,
    "lines": ["161"]
  },
  {
    "name": "RIVAGE",
    "nameClean": "Rivage",
    "url": "https://nl.wikipedia.org/wiki/Station_Rivage",
    "lat": 50.48604184663173,
    "lon": 5.585387796163559,
    "region": "WAL",
    "province": "WLG",
    "city": "62100",
    "telegraphcode": "MRV",
    "opened": 1866,
    "platforms": 2,
    "tracks": null,
    "lines": ["42", "43"]
  },
  {
    "name": "RIXENSART",
    "nameClean": "Rixensart",
    "url": "https://nl.wikipedia.org/wiki/Station_Rixensart",
    "lat": 50.71164073275641,
    "lon": 4.53335165977478,
    "region": "WAL",
    "province": "WBR",
    "city": "25091",
    "telegraphcode": "MRX",
    "opened": 1855,
    "platforms": 2,
    "tracks": null,
    "lines": ["161"]
  },
  {
    "name": "ROESELARE",
    "nameClean": "Roeselare",
    "url": "https://nl.wikipedia.org/wiki/Station_Roeselare",
    "lat": 50.949028880667306,
    "lon": 3.1304141879081726,
    "region": "VLG",
    "province": "VWV",
    "city": "36015",
    "telegraphcode": "FRL",
    "opened": 1847,
    "platforms": 2,
    "tracks": 3,
    "lines": ["66"]
  },
  {
    "name": "RONET",
    "nameClean": "Ronet",
    "url": "https://nl.wikipedia.org/wiki/Station_Ronet",
    "lat": 50.458131516039735,
    "lon": 4.829264972534247,
    "region": "WAL",
    "province": "WNA",
    "city": "92094",
    "telegraphcode": "FEO",
    "opened": 1895,
    "platforms": null,
    "tracks": null,
    "lines": ["130"]
  },
  {
    "name": "RONSE/RENAIX",
    "nameClean": "Ronse",
    "url": "https://nl.wikipedia.org/wiki/Station_Ronse",
    "lat": 50.74225696562832,
    "lon": 3.6017802357673645,
    "region": "VLG",
    "province": "VOV",
    "city": "45041",
    "telegraphcode": "FRN",
    "opened": 1861,
    "platforms": null,
    "tracks": null,
    "lines": ["86"]
  },
  {
    "name": "ROUX",
    "nameClean": "Roux",
    "url": "https://nl.wikipedia.org/wiki/Station_Roux",
    "lat": 50.44311676363001,
    "lon": 4.393458366394043,
    "region": "WAL",
    "province": "WHT",
    "city": "52011",
    "telegraphcode": "FRX",
    "opened": null,
    "platforms": null,
    "tracks": null,
    "lines": ["124"]
  },
  {
    "name": "RUISBROEK",
    "nameClean": "Ruisbroek",
    "url": "https://nl.wikipedia.org/wiki/Station_Ruisbroek",
    "lat": 50.7910483905786,
    "lon": 4.2950239777565,
    "region": "VLG",
    "province": "VBR",
    "city": "23077",
    "telegraphcode": "FRB",
    "opened": null,
    "platforms": 2,
    "tracks": null,
    "lines": ["96"]
  },
  {
    "name": "RUISBR.-SAUVEGARDE",
    "nameClean": "Ruisbroek-Sauvegarde",
    "url": "https://nl.wikipedia.org/wiki/Station_Ruisbroek-Sauvegarde",
    "lat": 51.08109727911135,
    "lon": 4.325884133577347,
    "region": "VLG",
    "province": "VAN",
    "city": "12041",
    "telegraphcode": "FSV",
    "opened": 1881,
    "platforms": 1,
    "tracks": null,
    "lines": ["52"]
  },
  {
    "name": "ST-DENIS-BOVESSE",
    "nameClean": "Saint-Denis-Bovesse",
    "url": "https://nl.wikipedia.org/wiki/Station_Saint-Denis-Bovesse",
    "lat": 50.52136291383352,
    "lon": 4.768161624670029,
    "region": "WAL",
    "province": "WNA",
    "city": "92141",
    "telegraphcode": "MD",
    "opened": 1855,
    "platforms": null,
    "tracks": null,
    "lines": ["161"]
  },
  {
    "name": "ST-GHISLAIN",
    "nameClean": "Saint-Ghislain",
    "url": "https://nl.wikipedia.org/wiki/Station_Saint-Ghislain",
    "lat": 50.44282637746833,
    "lon": 3.819194734096527,
    "region": "WAL",
    "province": "WHT",
    "city": "53070",
    "telegraphcode": "FGH",
    "opened": 1840,
    "platforms": null,
    "tracks": 5,
    "lines": ["78", "97", "100"]
  },
  {
    "name": "SART-BERNARD",
    "nameClean": "Sart-Bernard",
    "url": "https://nl.wikipedia.org/wiki/Station_Sart-Bernard",
    "lat": 50.406484159193745,
    "lon": 4.949560761451721,
    "region": "WAL",
    "province": "WNA",
    "city": "92006",
    "telegraphcode": null,
    "opened": 1895,
    "platforms": null,
    "tracks": null,
    "lines": ["162"]
  },
  {
    "name": "SCHAARBEEK/SCHAERBEEK",
    "nameClean": "Schaarbeek",
    "url": "https://nl.wikipedia.org/wiki/Station_Schaarbeek",
    "lat": 50.87806222155037,
    "lon": 4.379639625549316,
    "region": "BRU",
    "city": "21004",
    "telegraphcode": "FSR",
    "opened": 1837,
    "platforms": 13,
    "tracks": null,
    "lines": ["25", "26", "27", "28", "36", "36N", "161"]
  },
  {
    "name": "SCHELDEWINDEKE",
    "nameClean": "Scheldewindeke",
    "url": "https://nl.wikipedia.org/wiki/Station_Scheldewindeke",
    "lat": 50.93638221865141,
    "lon": 3.7782172858715057,
    "region": "VLG",
    "province": "VOV",
    "city": "44052",
    "telegraphcode": "FSK",
    "opened": 1867,
    "platforms": null,
    "tracks": 2,
    "lines": ["122"]
  },
  {
    "name": "SCHELLE",
    "nameClean": "Schelle",
    "url": "https://nl.wikipedia.org/wiki/Station_Schelle",
    "lat": 51.12579744714191,
    "lon": 4.3401632847028395,
    "region": "VLG",
    "province": "VAN",
    "city": "11038",
    "telegraphcode": null,
    "opened": 2004,
    "platforms": 2,
    "tracks": null,
    "lines": ["52"]
  },
  {
    "name": "SCHELLEBELLE",
    "nameClean": "Schellebelle",
    "url": "https://nl.wikipedia.org/wiki/Station_Schellebelle",
    "lat": 51.00312499407521,
    "lon": 3.9220505506377776,
    "region": "VLG",
    "province": "VOV",
    "city": "42026",
    "telegraphcode": "FCB",
    "opened": 1837,
    "platforms": null,
    "tracks": 3,
    "lines": ["50", "53"]
  },
  {
    "name": "SCHENDELBEKE",
    "nameClean": "Schendelbeke",
    "url": "https://nl.wikipedia.org/wiki/Station_Schendelbeke",
    "lat": 50.79780617380263,
    "lon": 3.8994134954123183,
    "region": "VLG",
    "province": "VOV",
    "city": "41018",
    "telegraphcode": "FED",
    "opened": null,
    "platforms": null,
    "tracks": 2,
    "lines": ["90"]
  },
  {
    "name": "SCHOONAARDE",
    "nameClean": "Schoonaarde",
    "url": "https://nl.wikipedia.org/wiki/Station_Schoonaarde",
    "lat": 51.0032498207582,
    "lon": 4.0113092958927155,
    "region": "VLG",
    "province": "VOV",
    "city": "42006",
    "telegraphcode": "FAD",
    "opened": 1837,
    "platforms": null,
    "tracks": 2,
    "lines": ["53"]
  },
  {
    "name": "SCHULEN",
    "nameClean": "Schulen",
    "url": "https://nl.wikipedia.org/wiki/Station_Schulen",
    "lat": 50.964025325585055,
    "lon": 5.185581743717194,
    "region": "VLG",
    "province": "VLI",
    "city": "71024",
    "telegraphcode": "GSU",
    "opened": 1865,
    "platforms": 2,
    "tracks": null,
    "lines": ["35"]
  },
  {
    "name": "SCLAIGNEAUX",
    "nameClean": "Sclaigneaux",
    "url": "https://nl.wikipedia.org/wiki/Station_Sclaigneaux",
    "lat": 50.492109673345546,
    "lon": 5.026211122396035,
    "region": "WAL",
    "province": "WNA",
    "city": "92003",
    "telegraphcode": "NS",
    "opened": null,
    "platforms": null,
    "tracks": null,
    "lines": ["125"]
  },
  {
    "name": "SCLESSIN",
    "nameClean": "Sclessin",
    "url": "https://nl.wikipedia.org/wiki/Station_Sclessin",
    "lat": 50.61072661720814,
    "lon": 5.55587075650692,
    "region": "WAL",
    "province": "WLG",
    "city": "62063",
    "telegraphcode": "NSN",
    "opened": null,
    "platforms": 2,
    "tracks": null,
    "lines": ["125"]
  },
  {
    "name": "SERAING",
    "nameClean": "Seraing",
    "url": "https://nl.wikipedia.org/wiki/Station_Seraing",
    "lat": 50.608812,
    "lon": 5.513212,
    "region": "WAL",
    "province": "WLG",
    "city": "62096",
    "telegraphcode": "NSR",
    "opened": 2018,
    "platforms": null,
    "tracks": null,
    "lines": ["125A"]
  },
  {
    "name": "SERSKAMP",
    "nameClean": "Serskamp",
    "url": "https://nl.wikipedia.org/wiki/Station_Serskamp",
    "lat": 50.98523218321767,
    "lon": 3.9583969877307936,
    "region": "VLG",
    "province": "VOV",
    "city": "42026",
    "telegraphcode": null,
    "opened": null,
    "platforms": 2,
    "tracks": null,
    "lines": ["50"]
  },
  {
    "name": "SILLY",
    "nameClean": "Silly",
    "url": "https://nl.wikipedia.org/wiki/Station_Silly",
    "lat": 50.66283450643882,
    "lon": 3.9358440041542053,
    "region": "WAL",
    "province": "WHT",
    "city": "55039",
    "telegraphcode": "FIL",
    "opened": 1866,
    "platforms": null,
    "tracks": null,
    "lines": ["94"]
  },
  {
    "name": "SIMONIS",
    "nameClean": "Simonis",
    "url": "https://nl.wikipedia.org/wiki/Station_Simonis",
    "lat": 50.863525,
    "lon": 4.331084,
    "region": "BRU",
    "city": "21011",
    "telegraphcode": "FKRG",
    "opened": 1983,
    "platforms": null,
    "tracks": null,
    "lines": ["28"]
  },
  {
    "name": "SINAAI",
    "nameClean": "Sinaai",
    "url": "https://nl.wikipedia.org/wiki/Station_Sinaai",
    "lat": 51.14327268633723,
    "lon": 4.068006597784574,
    "region": "VLG",
    "province": "VOV",
    "city": "46021",
    "telegraphcode": "LSW",
    "opened": 1849,
    "platforms": 2,
    "tracks": null,
    "lines": ["59"]
  },
  {
    "name": "BERCHEM-ST-AG.-BERCHEM",
    "nameClean": "Sint-Agatha-Berchem",
    "url": "https://nl.wikipedia.org/wiki/Station_Sint-Agatha-Berchem",
    "lat": 50.872765551013394,
    "lon": 4.289807081222534,
    "region": "BRU",
    "city": "21003",
    "telegraphcode": "FBSG",
    "opened": 1864,
    "platforms": 2,
    "tracks": null,
    "lines": ["50"]
  },
  {
    "name": "ST-DENIJS-BOEKEL",
    "nameClean": "Sint-Denijs-Boekel",
    "url": "https://nl.wikipedia.org/wiki/Station_Sint-Denijs-Boekel",
    "lat": 50.87432397849718,
    "lon": 3.6982827260660542,
    "region": "VLG",
    "province": "VOV",
    "city": "45065",
    "telegraphcode": "FNZ",
    "opened": 1868,
    "platforms": 2,
    "tracks": null,
    "lines": ["89"]
  },
  {
    "name": "ST-GEN-RODE/RHODE-ST-GEN",
    "nameClean": "Sint-Genesius-Rode",
    "url": "https://nl.wikipedia.org/wiki/Station_Sint-Genesius-Rode",
    "lat": 50.74794521696524,
    "lon": 4.361705034971237,
    "region": "VLG",
    "province": "VBR",
    "city": "23101",
    "telegraphcode": "FGO",
    "opened": 1873,
    "platforms": 2,
    "tracks": null,
    "lines": ["124"]
  },
  {
    "name": "ST-GILLIS",
    "nameClean": "Sint-Gillis",
    "url": "https://nl.wikipedia.org/wiki/Station_Sint-Gillis",
    "lat": 51.021062603019814,
    "lon": 4.1186506872434165,
    "region": "VLG",
    "province": "VOV",
    "city": "42006",
    "telegraphcode": null,
    "opened": null,
    "platforms": 2,
    "tracks": null,
    "lines": ["60"]
  },
  {
    "name": "ST-JOB",
    "nameClean": "Sint-Job",
    "url": "https://nl.wikipedia.org/wiki/Station_Sint-Job",
    "lat": 50.79403502307362,
    "lon": 4.361840486526489,
    "region": "BRU",
    "city": "21016",
    "telegraphcode": null,
    "opened": 1973,
    "platforms": 2,
    "tracks": null,
    "lines": ["26"]
  },
  {
    "name": "ST-JORIS-WEERT",
    "nameClean": "Sint-Joris-Weert",
    "url": "https://nl.wikipedia.org/wiki/Station_Sint-Joris-Weert",
    "lat": 50.80067930815736,
    "lon": 4.651803681509023,
    "region": "VLG",
    "province": "VBR",
    "city": "24086",
    "telegraphcode": "GSW",
    "opened": 1855,
    "platforms": 3,
    "tracks": null,
    "lines": ["139"]
  },
  {
    "name": "ST-KATELIJNE-WAVER",
    "nameClean": "Sint-Katelijne-Waver",
    "url": "https://nl.wikipedia.org/wiki/Station_Sint-Katelijne-Waver",
    "lat": 51.07006868085108,
    "lon": 4.495826741935275,
    "region": "VLG",
    "province": "VAN",
    "city": "12035",
    "telegraphcode": "FWA",
    "opened": 1865,
    "platforms": 4,
    "tracks": null,
    "lines": ["25", "27"]
  },
  {
    "name": "ST-MARIABURG",
    "nameClean": "Sint-Mariaburg",
    "url": "https://nl.wikipedia.org/wiki/Station_Sint-Mariaburg",
    "lat": 51.29123844587346,
    "lon": 4.434934705495834,
    "region": "VLG",
    "province": "VAN",
    "city": "11002",
    "telegraphcode": "MRB",
    "opened": 1933,
    "platforms": 2,
    "tracks": 2,
    "lines": ["12"]
  },
  {
    "name": "ST-MARTENS-BODEGEM",
    "nameClean": "Sint-Martens-Bodegem",
    "url": "https://nl.wikipedia.org/wiki/Station_Sint-Martens-Bodegem",
    "lat": 50.867272761298324,
    "lon": 4.205381870269775,
    "region": "VLG",
    "province": "VBR",
    "city": "23016",
    "telegraphcode": "FSMB",
    "opened": 1864,
    "platforms": 2,
    "tracks": null,
    "lines": ["50"]
  },
  {
    "name": "ST-NIKLAAS",
    "nameClean": "Sint-Niklaas",
    "url": "https://nl.wikipedia.org/wiki/Station_Sint-Niklaas",
    "lat": 51.17165985842926,
    "lon": 4.144399166107178,
    "region": "VLG",
    "province": "VOV",
    "city": "46021",
    "telegraphcode": "FSN",
    "opened": 1844,
    "platforms": 3,
    "tracks": 6,
    "lines": ["54", "59"]
  },
  {
    "name": "ST-TRUIDEN",
    "nameClean": "Sint-Truiden",
    "url": "https://nl.wikipedia.org/wiki/Station_Sint-Truiden",
    "lat": 50.817490786938,
    "lon": 5.176409929990768,
    "region": "VLG",
    "province": "VLI",
    "city": "71053",
    "telegraphcode": "FST",
    "opened": 1839,
    "platforms": 3,
    "tracks": null,
    "lines": ["21"]
  },
  {
    "name": "SLEIDINGE",
    "nameClean": "Sleidinge",
    "url": "https://nl.wikipedia.org/wiki/Station_Sleidinge",
    "lat": 51.12625736781577,
    "lon": 3.667755895377695,
    "region": "VLG",
    "province": "VOV",
    "city": "44019",
    "telegraphcode": "LSD",
    "opened": 1988,
    "platforms": 2,
    "tracks": 1,
    "lines": ["58"]
  },
  {
    "name": "SOIGNIES",
    "nameClean": "Soignies",
    "url": "https://nl.wikipedia.org/wiki/Station_Soignies",
    "lat": 50.57323843742934,
    "lon": 4.069175273180008,
    "region": "WAL",
    "province": "WHT",
    "city": "55040",
    "telegraphcode": "FSG",
    "opened": 1841,
    "platforms": null,
    "tracks": null,
    "lines": ["96"]
  },
  {
    "name": "SOLRE-SUR-SAMBRE",
    "nameClean": "Solre-sur-Sambre",
    "url": "https://nl.wikipedia.org/wiki/Station_Solre-sur-Sambre",
    "lat": 50.3127576518036,
    "lon": 4.157601757811221,
    "region": "WAL",
    "province": "WHT",
    "city": "56022",
    "telegraphcode": "NSS",
    "opened": 1852,
    "platforms": 2,
    "tracks": null,
    "lines": ["130A"]
  },
  {
    "name": "SPA",
    "nameClean": "Spa",
    "url": "https://nl.wikipedia.org/wiki/Station_Spa",
    "lat": 50.49036267338533,
    "lon": 5.855891837510853,
    "region": "WAL",
    "province": "WLG",
    "city": "63072",
    "telegraphcode": "FSS",
    "opened": 1855,
    "platforms": null,
    "tracks": null,
    "lines": ["44"]
  },
  {
    "name": "SPA-GERONSTERE",
    "nameClean": "Spa-Géronstère",
    "url": "https://nl.wikipedia.org/wiki/Station_Spa-Géronstère",
    "lat": 50.48931584317159,
    "lon": 5.866620093584061,
    "region": "WAL",
    "province": "WLG",
    "city": "63072",
    "telegraphcode": "FSSG",
    "opened": 1867,
    "platforms": 1,
    "tracks": null,
    "lines": ["44"]
  },
  {
    "name": "STATTE",
    "nameClean": "Statte",
    "url": "https://nl.wikipedia.org/wiki/Station_Statte",
    "lat": 50.52783246558487,
    "lon": 5.221032500267029,
    "region": "WAL",
    "province": "WLG",
    "city": "61031",
    "telegraphcode": "LHY",
    "opened": 1850,
    "platforms": 3,
    "tracks": 4,
    "lines": ["125"]
  },
  {
    "name": "STOCKEM",
    "nameClean": "Stockem",
    "url": "https://nl.wikipedia.org/wiki/Station_Stockem",
    "lat": 49.69100086288382,
    "lon": 5.767850202148566,
    "region": "WAL",
    "province": "WLX",
    "city": "81001",
    "telegraphcode": "MKM",
    "opened": 1922,
    "platforms": null,
    "tracks": null,
    "lines": ["162"]
  },
  {
    "name": "SY",
    "nameClean": "Sy",
    "url": "https://nl.wikipedia.org/wiki/Station_Sy",
    "lat": 50.402957390376685,
    "lon": 5.523879379034042,
    "region": "WAL",
    "province": "WLG",
    "city": "61019",
    "telegraphcode": null,
    "opened": null,
    "platforms": 2,
    "tracks": null,
    "lines": ["43"]
  },
  {
    "name": "TAMINES",
    "nameClean": "Tamines",
    "url": "https://nl.wikipedia.org/wiki/Station_Tamines",
    "lat": 50.432611430142096,
    "lon": 4.6096698967051,
    "region": "WAL",
    "province": "WNA",
    "city": "92137",
    "telegraphcode": "FTS",
    "opened": null,
    "platforms": null,
    "tracks": null,
    "lines": ["130"]
  },
  {
    "name": "TEMSE",
    "nameClean": "Temse",
    "url": "https://nl.wikipedia.org/wiki/Station_Temse",
    "lat": 51.12609817875482,
    "lon": 4.221322238445282,
    "region": "VLG",
    "province": "VOV",
    "city": "46025",
    "telegraphcode": "FTS",
    "opened": null,
    "platforms": null,
    "tracks": null,
    "lines": ["54"]
  },
  {
    "name": "TERHAGEN",
    "nameClean": "Terhagen",
    "url": "https://nl.wikipedia.org/wiki/Station_Terhagen",
    "lat": 50.90130916666506,
    "lon": 3.8959595561027527,
    "region": "VLG",
    "province": "VOV",
    "city": "41027",
    "telegraphcode": "MTH",
    "opened": null,
    "platforms": null,
    "tracks": null,
    "lines": ["89"]
  },
  {
    "name": "TERNAT",
    "nameClean": "Ternat",
    "url": "https://nl.wikipedia.org/wiki/Station_Ternat",
    "lat": 50.874513967360414,
    "lon": 4.165850132703781,
    "region": "VLG",
    "province": "VBR",
    "city": "23086",
    "telegraphcode": "FTN",
    "opened": null,
    "platforms": null,
    "tracks": null,
    "lines": ["50"]
  },
  {
    "name": "TESTELT",
    "nameClean": "Testelt",
    "url": "https://nl.wikipedia.org/wiki/Station_Testelt",
    "lat": 51.00983862647778,
    "lon": 4.94677442158013,
    "region": "VLG",
    "province": "VBR",
    "city": "24134",
    "telegraphcode": "GTT",
    "opened": null,
    "platforms": null,
    "tracks": null,
    "lines": ["35"]
  },
  {
    "name": "THEUX",
    "nameClean": "Theux",
    "url": "https://nl.wikipedia.org/wiki/Station_Theux",
    "lat": 50.536196039111694,
    "lon": 5.815072059631348,
    "region": "WAL",
    "province": "WLG",
    "city": "63076",
    "telegraphcode": "FTX",
    "opened": null,
    "platforms": null,
    "tracks": null,
    "lines": ["44"]
  },
  {
    "name": "THIEU",
    "nameClean": "Thieu",
    "url": "https://nl.wikipedia.org/wiki/Station_Thieu",
    "lat": 50.4697543545622,
    "lon": 4.098510486403484,
    "region": "WAL",
    "province": "WHT",
    "city": "55035",
    "telegraphcode": "LU",
    "opened": null,
    "platforms": null,
    "tracks": null,
    "lines": ["118"]
  },
  {
    "name": "THUIN",
    "nameClean": "Thuin",
    "url": "https://nl.wikipedia.org/wiki/Station_Thuin",
    "lat": 50.34258390539215,
    "lon": 4.288191781857449,
    "region": "WAL",
    "province": "WHT",
    "city": "56078",
    "telegraphcode": "NTH",
    "opened": null,
    "platforms": null,
    "tracks": null,
    "lines": ["130A"]
  },
  {
    "name": "THULIN",
    "nameClean": "Thulin",
    "url": "https://nl.wikipedia.org/wiki/Station_Thulin",
    "lat": 50.42328,
    "lon": 3.745092,
    "region": "WAL",
    "province": "WHT",
    "city": "53039",
    "telegraphcode": "FTU",
    "opened": null,
    "platforms": null,
    "tracks": null,
    "lines": ["97"]
  },
  {
    "name": "TIELEN",
    "nameClean": "Tielen",
    "url": "https://nl.wikipedia.org/wiki/Station_Tielen",
    "lat": 51.24204775503691,
    "lon": 4.894467066136826,
    "region": "VLG",
    "province": "VAN",
    "city": "13017",
    "telegraphcode": "FIT",
    "opened": null,
    "platforms": null,
    "tracks": null,
    "lines": ["29"]
  },
  {
    "name": "TIELT",
    "nameClean": "Tielt",
    "url": "https://nl.wikipedia.org/wiki/Station_Tielt",
    "lat": 50.990436421743155,
    "lon": 3.329259753227234,
    "region": "VLG",
    "province": "VWV",
    "city": "37015",
    "telegraphcode": "FTT",
    "opened": null,
    "platforms": null,
    "tracks": null,
    "lines": ["73"]
  },
  {
    "name": "TIENEN",
    "nameClean": "Tienen",
    "url": "https://nl.wikipedia.org/wiki/Station_Tienen",
    "lat": 50.808068084718215,
    "lon": 4.9258956273477,
    "region": "VLG",
    "province": "VBR",
    "city": "24107",
    "telegraphcode": "FTNN",
    "opened": null,
    "platforms": null,
    "tracks": null,
    "lines": ["36"]
  },
  {
    "name": "TILFF",
    "nameClean": "Tilff",
    "url": "https://nl.wikipedia.org/wiki/Station_Tilff",
    "lat": 50.570287444469,
    "lon": 5.583205613133941,
    "region": "WAL",
    "province": "WLG",
    "city": "62032",
    "telegraphcode": "MTF",
    "opened": null,
    "platforms": null,
    "tracks": null,
    "lines": ["43"]
  },
  {
    "name": "TILLY",
    "nameClean": "Tilly",
    "url": "https://nl.wikipedia.org/wiki/Station_Tilly",
    "lat": 50.55819886142132,
    "lon": 4.5526521027246645,
    "region": "WAL",
    "province": "WBR",
    "city": "25107",
    "telegraphcode": "GTI",
    "opened": null,
    "platforms": null,
    "tracks": null,
    "lines": ["140"]
  },
  {
    "name": "TOLLEMBEEK",
    "nameClean": "Tollembeek",
    "url": "https://nl.wikipedia.org/wiki/Station_Tollembeek",
    "lat": 50.735071355005346,
    "lon": 3.9938448564469127,
    "region": "VLG",
    "province": "VBR",
    "city": "23023",
    "telegraphcode": "LOK",
    "opened": null,
    "platforms": null,
    "tracks": null,
    "lines": ["123"]
  },
  {
    "name": "TONGEREN",
    "nameClean": "Tongeren",
    "url": "https://nl.wikipedia.org/wiki/Station_Tongeren",
    "lat": 50.78393174564868,
    "lon": 5.473560212042685,
    "region": "VLG",
    "province": "VLI",
    "city": "73083",
    "telegraphcode": "FTG",
    "opened": null,
    "platforms": null,
    "tracks": null,
    "lines": ["24", "34"]
  },
  {
    "name": "TORHOUT",
    "nameClean": "Torhout",
    "url": "https://nl.wikipedia.org/wiki/Station_Torhout",
    "lat": 51.06481799648714,
    "lon": 3.1055715680122375,
    "region": "VLG",
    "province": "VWV",
    "city": "31033",
    "telegraphcode": "FRT",
    "opened": null,
    "platforms": null,
    "tracks": null,
    "lines": ["66"]
  },
  {
    "name": "TOUR ET TAXIS/THURN EN TAXIS",
    "nameClean": "Thurn en Taxis",
    "url": "https://nl.wikipedia.org/wiki/Station_Thurn_en_Taxis",
    "lat": 50.872542128128636,
    "lon": 4.341895580291748,
    "region": "BRU",
    "city": "21004",
    "telegraphcode": "FPNO",
    "opened": null,
    "platforms": null,
    "tracks": null,
    "lines": ["28"]
  },
  {
    "name": "TOURNAI",
    "nameClean": "Tournai",
    "url": "https://nl.wikipedia.org/wiki/Station_Tournai",
    "lat": 50.61278695427139,
    "lon": 3.3966878056526184,
    "region": "WAL",
    "province": "WHT",
    "city": "57081",
    "telegraphcode": "FTY",
    "opened": 1842,
    "platforms": null,
    "tracks": null,
    "lines": ["78", "94"]
  },
  {
    "name": "TROIS-PONTS",
    "nameClean": "Trois-Ponts",
    "url": "https://nl.wikipedia.org/wiki/Station_Trois-Ponts",
    "lat": 50.3691789979356,
    "lon": 5.873293300481123,
    "region": "WAL",
    "province": "WLG",
    "city": "63086",
    "telegraphcode": "FNO",
    "opened": null,
    "platforms": null,
    "tracks": null,
    "lines": ["42"]
  },
  {
    "name": "TROOZ",
    "nameClean": "Trooz",
    "url": "https://nl.wikipedia.org/wiki/Station_Trooz",
    "lat": 50.57334198128324,
    "lon": 5.6884766583342525,
    "region": "WAL",
    "province": "WLG",
    "city": "62122",
    "telegraphcode": "FRZ",
    "opened": null,
    "platforms": null,
    "tracks": null,
    "lines": ["37"]
  },
  {
    "name": "TUBIZE",
    "nameClean": "Tubize",
    "url": "https://nl.wikipedia.org/wiki/Station_Tubize",
    "lat": 50.691784782795985,
    "lon": 4.20563500457024,
    "region": "WAL",
    "province": "WBR",
    "city": "25105",
    "telegraphcode": "FTZ",
    "opened": null,
    "platforms": null,
    "tracks": null,
    "lines": ["96"]
  },
  {
    "name": "TURNHOUT",
    "nameClean": "Turnhout",
    "url": "https://nl.wikipedia.org/wiki/Station_Turnhout",
    "lat": 51.322039781659846,
    "lon": 4.937859828539558,
    "region": "VLG",
    "province": "VAN",
    "city": "13040",
    "telegraphcode": "FTR",
    "opened": null,
    "platforms": null,
    "tracks": null,
    "lines": ["29"]
  },
  {
    "name": "UCCLE/UKKEL-CALEVOET",
    "nameClean": "Ukkel-Kalevoet",
    "url": "https://nl.wikipedia.org/wiki/Station_Ukkel-Kalevoet",
    "lat": 50.7917181317503,
    "lon": 4.332000911235809,
    "region": "BRU",
    "city": "21016",
    "telegraphcode": "FTE",
    "opened": 1873,
    "platforms": 2,
    "tracks": null,
    "lines": ["124"]
  },
  {
    "name": "UCCLE/UKKEL-STALLE",
    "nameClean": "Ukkel-Stalle",
    "url": "https://nl.wikipedia.org/wiki/Station_Ukkel-Stalle",
    "lat": 50.80245974031273,
    "lon": 4.323872521207363,
    "region": "BRU",
    "city": "21016",
    "telegraphcode": "FUS",
    "opened": 1873,
    "platforms": 2,
    "tracks": null,
    "lines": ["124"]
  },
  {
    "name": "VELTEM",
    "nameClean": "Veltem",
    "url": "https://nl.wikipedia.org/wiki/Station_Veltem",
    "lat": 50.90034875037752,
    "lon": 4.632685710998771,
    "region": "VLG",
    "province": "VBR",
    "city": "24038",
    "telegraphcode": "FEM",
    "opened": 1866,
    "platforms": 2,
    "tracks": null,
    "lines": ["36"]
  },
  {
    "name": "VERTRIJK",
    "nameClean": "Vertrijk",
    "url": "https://nl.wikipedia.org/wiki/Station_Vertrijk",
    "lat": 50.835919314741446,
    "lon": 4.835699647665024,
    "region": "VLG",
    "province": "VBR",
    "city": "24016",
    "telegraphcode": "FVK",
    "opened": null,
    "platforms": 2,
    "tracks": null,
    "lines": ["36"]
  },
  {
    "name": "VERVIERS-CENTRAL",
    "nameClean": "Verviers-Central",
    "url": "https://nl.wikipedia.org/wiki/Station_Verviers-Central",
    "lat": 50.58816338553617,
    "lon": 5.854999423027039,
    "region": "WAL",
    "province": "WLG",
    "city": "63079",
    "telegraphcode": "GV",
    "opened": 1930,
    "platforms": 5,
    "tracks": null,
    "lines": ["37"]
  },
  {
    "name": "VERVIERS-PALAIS",
    "nameClean": "Verviers-Palais",
    "url": "https://nl.wikipedia.org/wiki/Station_Verviers-Palais",
    "lat": 50.590888810983465,
    "lon": 5.864568203687668,
    "region": "WAL",
    "province": "WLG",
    "city": "63079",
    "telegraphcode": null,
    "opened": null,
    "platforms": 2,
    "tracks": null,
    "lines": ["37"]
  },
  {
    "name": "VEURNE",
    "nameClean": "Veurne",
    "url": "https://nl.wikipedia.org/wiki/Station_Veurne",
    "lat": 51.073774459353224,
    "lon": 2.6700036227703094,
    "region": "VLG",
    "province": "VWV",
    "city": "38025",
    "telegraphcode": "FVU",
    "opened": 1858,
    "platforms": null,
    "tracks": 2,
    "lines": ["73"]
  },
  {
    "name": "VIANE-MOERBEKE",
    "nameClean": "Viane-Moerbeke",
    "url": "https://nl.wikipedia.org/wiki/Station_Viane-Moerbeke",
    "lat": 50.75184673883671,
    "lon": 3.9171141386032104,
    "region": "VLG",
    "province": "VOV",
    "city": "41018",
    "telegraphcode": "FKV",
    "opened": 1867,
    "platforms": 2,
    "tracks": null,
    "lines": ["123"]
  },
  {
    "name": "VICHTE",
    "nameClean": "Vichte",
    "url": "https://nl.wikipedia.org/wiki/Station_Vichte",
    "lat": 50.833641768553726,
    "lon": 3.3918799459934235,
    "region": "VLG",
    "province": "VWV",
    "city": "34002",
    "telegraphcode": "FVE",
    "opened": 1868,
    "platforms": null,
    "tracks": null,
    "lines": ["89"]
  },
  {
    "name": "VIELSALM",
    "nameClean": "Vielsalm",
    "url": "https://nl.wikipedia.org/wiki/Station_Vielsalm",
    "lat": 50.27874488244606,
    "lon": 5.909579694271088,
    "region": "WAL",
    "province": "WLX",
    "city": "82032",
    "telegraphcode": "FVI",
    "opened": 1867,
    "platforms": null,
    "tracks": null,
    "lines": ["42"]
  },
  {
    "name": "VIJFHUIZEN",
    "nameClean": "Vijfhuizen",
    "url": "https://nl.wikipedia.org/wiki/Station_Vijfhuizen",
    "lat": 50.94347072208788,
    "lon": 3.983394205570221,
    "region": "VLG",
    "province": "VOV",
    "city": "41082",
    "telegraphcode": null,
    "opened": null,
    "platforms": null,
    "tracks": 1,
    "lines": ["82"]
  },
  {
    "name": "VILLE-POMMEROEUL",
    "nameClean": "Ville-Pommerœul",
    "url": "https://nl.wikipedia.org/wiki/Station_Ville-Pommeroeul",
    "lat": 50.46511601938089,
    "lon": 3.723136782646179,
    "region": "WAL",
    "province": "WHT",
    "city": "51009",
    "telegraphcode": "FPM",
    "opened": 1861,
    "platforms": null,
    "tracks": null,
    "lines": ["78"]
  },
  {
    "name": "VILLERS-LA-VILLE",
    "nameClean": "Villers-la-Ville",
    "url": "https://nl.wikipedia.org/wiki/Station_Villers-la-Ville",
    "lat": 50.577873782458845,
    "lon": 4.534196501529209,
    "region": "WAL",
    "province": "WBR",
    "city": "25107",
    "telegraphcode": "LLE",
    "opened": null,
    "platforms": null,
    "tracks": null,
    "lines": ["140"]
  },
  {
    "name": "VILVOORDE",
    "nameClean": "Vilvoorde",
    "url": "https://nl.wikipedia.org/wiki/Station_Vilvoorde",
    "lat": 50.924598081704794,
    "lon": 4.4326945490217895,
    "region": "VLG",
    "province": "VBR",
    "city": "23088",
    "telegraphcode": "FVV",
    "opened": 1835,
    "platforms": 6,
    "tracks": null,
    "lines": ["25", "26", "27"]
  },
  {
    "name": "VIRTON",
    "nameClean": "Virton",
    "url": "https://nl.wikipedia.org/wiki/Station_Virton",
    "lat": 49.56056882296359,
    "lon": 5.5195008451152034,
    "region": "WAL",
    "province": "WLX",
    "city": "85045",
    "telegraphcode": "MSM",
    "opened": 1873,
    "platforms": 2,
    "tracks": null,
    "lines": ["165"]
  },
  {
    "name": "VISE",
    "nameClean": "Visé",
    "url": "https://nl.wikipedia.org/wiki/Station_Visé",
    "lat": 50.73780805598555,
    "lon": 5.692366361618042,
    "region": "WAL",
    "province": "WLG",
    "city": "62108",
    "telegraphcode": "FVS",
    "opened": null,
    "platforms": null,
    "tracks": null,
    "lines": ["40"]
  },
  {
    "name": "VIVILLE",
    "nameClean": "Viville",
    "url": "https://nl.wikipedia.org/wiki/Station_Viville",
    "lat": 49.68812890728054,
    "lon": 5.785996913909912,
    "region": "WAL",
    "province": "WLX",
    "city": "81001",
    "telegraphcode": null,
    "opened": null,
    "platforms": null,
    "tracks": null,
    "lines": ["162"]
  },
  {
    "name": "VOROUX",
    "nameClean": "Voroux",
    "url": "https://nl.wikipedia.org/wiki/Station_Voroux",
    "lat": 50.66084973315053,
    "lon": 5.430079316175011,
    "region": "WAL",
    "province": "WLG",
    "city": "64025",
    "telegraphcode": "GVX",
    "opened": null,
    "platforms": null,
    "tracks": null,
    "lines": ["36"]
  },
  {
    "name": "FOREST-EST/VORST-OOST",
    "nameClean": "Vorst-Oost",
    "url": "https://nl.wikipedia.org/wiki/Station_Vorst-Oost",
    "lat": 50.80947769962828,
    "lon": 4.320615064853882,
    "region": "BRU",
    "city": "21007",
    "telegraphcode": "FOST",
    "opened": 1873,
    "platforms": 2,
    "tracks": null,
    "lines": ["124"]
  },
  {
    "name": "FOREST-MIDI/VORST-ZUID",
    "nameClean": "Vorst-Zuid",
    "url": "https://nl.wikipedia.org/wiki/Station_Vorst-Zuid",
    "lat": 50.80793226440991,
    "lon": 4.3086884915828705,
    "region": "BRU",
    "city": "21007",
    "telegraphcode": "FO",
    "opened": null,
    "platforms": 4,
    "tracks": null,
    "lines": ["96"]
  },
  {
    "name": "WAARSCHOOT",
    "nameClean": "Waarschoot",
    "url": "https://nl.wikipedia.org/wiki/Station_Waarschoot",
    "lat": 51.154259018137985,
    "lon": 3.6153650754804403,
    "region": "VLG",
    "province": "VOV",
    "city": "44085",
    "telegraphcode": "LWT",
    "opened": 1861,
    "platforms": null,
    "tracks": 1,
    "lines": ["58"]
  },
  {
    "name": "WALCOURT",
    "nameClean": "Walcourt",
    "url": "https://nl.wikipedia.org/wiki/Station_Walcourt",
    "lat": 50.259278447648384,
    "lon": 4.436202049255371,
    "region": "WAL",
    "province": "WNA",
    "city": "93088",
    "telegraphcode": "LWC",
    "opened": 1848,
    "platforms": null,
    "tracks": null,
    "lines": ["132"]
  },
  {
    "name": "WAREGEM",
    "nameClean": "Waregem",
    "url": "https://nl.wikipedia.org/wiki/Station_Waregem",
    "lat": 50.89156055038924,
    "lon": 3.424537181854248,
    "region": "VLG",
    "province": "VWV",
    "city": "34040",
    "telegraphcode": "FVG",
    "opened": 1839,
    "platforms": null,
    "tracks": 3,
    "lines": ["75"]
  },
  {
    "name": "WAREMME",
    "nameClean": "Waremme",
    "url": "https://nl.wikipedia.org/wiki/Station_Waremme",
    "lat": 50.69450857622317,
    "lon": 5.249403779195859,
    "region": "WAL",
    "province": "WLG",
    "city": "64074",
    "telegraphcode": "FVR",
    "opened": 1838,
    "platforms": null,
    "tracks": 2,
    "lines": ["36"]
  },
  {
    "name": "WATERLOO",
    "nameClean": "Waterloo",
    "url": "https://nl.wikipedia.org/wiki/Station_Waterloo",
    "lat": 50.715068055649525,
    "lon": 4.383497983217239,
    "region": "WAL",
    "province": "WBR",
    "city": "25110",
    "telegraphcode": "FWT",
    "opened": 1874,
    "platforms": null,
    "tracks": 2,
    "lines": ["124"]
  },
  {
    "name": "WATERMAEL/WATERMAAL",
    "nameClean": "Watermaal",
    "url": "https://nl.wikipedia.org/wiki/Station_Watermaal",
    "lat": 50.80938779439985,
    "lon": 4.399879591436388,
    "region": "BRU",
    "city": "21017",
    "telegraphcode": "FW",
    "opened": null,
    "platforms": 4,
    "tracks": null,
    "lines": ["161"]
  },
  {
    "name": "WAVRE",
    "nameClean": "Wavre",
    "url": "https://nl.wikipedia.org/wiki/Station_Wavre",
    "lat": 50.71605051998487,
    "lon": 4.605452120304108,
    "region": "WAL",
    "province": "WBR",
    "city": "25112",
    "telegraphcode": "GWV",
    "opened": 1855,
    "platforms": 3,
    "tracks": null,
    "lines": ["139"]
  },
  {
    "name": "WEERDE",
    "nameClean": "Weerde",
    "url": "https://nl.wikipedia.org/wiki/Station_Weerde",
    "lat": 50.978030024377894,
    "lon": 4.472028512897509,
    "region": "VLG",
    "province": "VBR",
    "city": "23096",
    "telegraphcode": "FWE",
    "opened": 1864,
    "platforms": 4,
    "tracks": null,
    "lines": ["25", "27"]
  },
  {
    "name": "WELKENRAEDT",
    "nameClean": "Welkenraedt",
    "url": "https://nl.wikipedia.org/wiki/Station_Welkenraedt",
    "lat": 50.65966883544155,
    "lon": 5.9755523448639,
    "region": "WAL",
    "province": "WLG",
    "city": "63084",
    "telegraphcode": "GWK",
    "opened": 1843,
    "platforms": null,
    "tracks": 5,
    "lines": ["37"]
  },
  {
    "name": "WELLE",
    "nameClean": "Welle",
    "url": "https://nl.wikipedia.org/wiki/Station_Welle",
    "lat": 50.90312924617946,
    "lon": 4.050985872745514,
    "region": "VLG",
    "province": "VOV",
    "city": "41011",
    "telegraphcode": null,
    "opened": 1896,
    "platforms": null,
    "tracks": null,
    "lines": ["89"]
  },
  {
    "name": "WERVIK",
    "nameClean": "Wervik",
    "url": "https://nl.wikipedia.org/wiki/Station_Wervik",
    "lat": 50.781701861836765,
    "lon": 3.0464641161930786,
    "region": "VLG",
    "province": "VWV",
    "city": "33029",
    "telegraphcode": "LWK",
    "opened": 1853,
    "platforms": null,
    "tracks": null,
    "lines": ["69"]
  },
  {
    "name": "WESPELAAR-TILDONK",
    "nameClean": "Wespelaar-Tildonk",
    "url": "https://nl.wikipedia.org/wiki/Station_Wespelaar-Tildonk",
    "lat": 50.958290719952316,
    "lon": 4.6381576359272,
    "region": "VLG",
    "province": "VBR",
    "city": "24033",
    "telegraphcode": "FVP",
    "opened": null,
    "platforms": null,
    "tracks": null,
    "lines": ["53"]
  },
  {
    "name": "WETTEREN",
    "nameClean": "Wetteren",
    "url": "https://nl.wikipedia.org/wiki/Station_Wetteren",
    "lat": 51.001659648294144,
    "lon": 3.8823806502971365,
    "region": "VLG",
    "province": "VOV",
    "city": "42025",
    "telegraphcode": "FVT",
    "opened": 1837,
    "platforms": null,
    "tracks": 2,
    "lines": ["50"]
  },
  {
    "name": "WEVELGEM",
    "nameClean": "Wevelgem",
    "url": "https://nl.wikipedia.org/wiki/Station_Wevelgem",
    "lat": 50.811003941270414,
    "lon": 3.1824550558189912,
    "region": "VLG",
    "province": "VWV",
    "city": "34041",
    "telegraphcode": "FWM",
    "opened": 1853,
    "platforms": null,
    "tracks": null,
    "lines": ["69"]
  },
  {
    "name": "WEZEMAAL",
    "nameClean": "Wezemaal",
    "url": "https://nl.wikipedia.org/wiki/Station_Wezemaal",
    "lat": 50.9559617054157,
    "lon": 4.74759042263031,
    "region": "VLG",
    "province": "VBR",
    "city": "24094",
    "telegraphcode": null,
    "opened": null,
    "platforms": 2,
    "tracks": null,
    "lines": ["35"]
  },
  {
    "name": "WICHELEN",
    "nameClean": "Wichelen",
    "url": "https://nl.wikipedia.org/wiki/Station_Wichelen",
    "lat": 51.00181045528532,
    "lon": 3.9699224920653933,
    "region": "VLG",
    "province": "VOV",
    "city": "42026",
    "telegraphcode": "FNW",
    "opened": null,
    "platforms": null,
    "tracks": null,
    "lines": ["53"]
  },
  {
    "name": "WIJGMAAL",
    "nameClean": "Wijgmaal",
    "url": "https://nl.wikipedia.org/wiki/Station_Wijgmaal",
    "lat": 50.92296056793062,
    "lon": 4.701301472327032,
    "region": "VLG",
    "province": "VBR",
    "city": "24062",
    "telegraphcode": "FWG",
    "opened": null,
    "platforms": null,
    "tracks": null,
    "lines": ["53"]
  },
  {
    "name": "WILDERT",
    "nameClean": "Wildert",
    "url": "https://nl.wikipedia.org/wiki/Station_Wildert",
    "lat": 51.42756524748786,
    "lon": 4.463552534580231,
    "region": "VLG",
    "province": "VAN",
    "city": "11016",
    "telegraphcode": "GWD",
    "opened": 1881,
    "platforms": 2,
    "tracks": 2,
    "lines": ["12"]
  },
  {
    "name": "WILLEBROEK",
    "nameClean": "Willebroek",
    "url": "https://nl.wikipedia.org/wiki/Station_Willebroek",
    "lat": 51.0665420075387,
    "lon": 4.355132625656097,
    "region": "VLG",
    "province": "VAN",
    "city": "12040",
    "telegraphcode": "FWB",
    "opened": 1870,
    "platforms": 2,
    "tracks": null,
    "lines": ["54"]
  },
  {
    "name": "WOLFSTEE",
    "nameClean": "Wolfstee",
    "url": "https://nl.wikipedia.org/wiki/Station_Wolfstee",
    "lat": 51.16848046448389,
    "lon": 4.78460356593132,
    "region": "VLG",
    "province": "VAN",
    "city": "13010",
    "telegraphcode": null,
    "opened": 2004,
    "platforms": null,
    "tracks": null,
    "lines": ["15"]
  },
  {
    "name": "WONDELGEM",
    "nameClean": "Wondelgem",
    "url": "https://nl.wikipedia.org/wiki/Station_Wondelgem",
    "lat": 51.089153485144294,
    "lon": 3.7194715440273285,
    "region": "VLG",
    "province": "VOV",
    "city": "44021",
    "telegraphcode": "FWO",
    "opened": 1861,
    "platforms": 2,
    "tracks": 2,
    "lines": ["58"]
  },
  {
    "name": "YVES-GOMEZEE",
    "nameClean": "Yves-Gomezée",
    "url": "https://nl.wikipedia.org/wiki/Station_Yves-Gomezée",
    "lat": 50.23697686648056,
    "lon": 4.500619322061539,
    "region": "WAL",
    "province": "WNA",
    "city": "93088",
    "telegraphcode": null,
    "opened": null,
    "platforms": null,
    "tracks": null,
    "lines": ["132"]
  },
  {
    "name": "YVOIR",
    "nameClean": "Yvoir",
    "url": "https://nl.wikipedia.org/wiki/Station_Yvoir",
    "lat": 50.32078197585764,
    "lon": 4.878585487604141,
    "region": "WAL",
    "province": "WNA",
    "city": "91141",
    "telegraphcode": "NV",
    "opened": 1862,
    "platforms": null,
    "tracks": 3,
    "lines": ["128"]
  },
  {
    "name": "ZANDBERGEN",
    "nameClean": "Zandbergen",
    "url": "https://nl.wikipedia.org/wiki/Station_Zandbergen",
    "lat": 50.807000595599845,
    "lon": 3.9577598834323453,
    "region": "VLG",
    "province": "VOV",
    "city": "41018",
    "telegraphcode": "FZB",
    "opened": null,
    "platforms": null,
    "tracks": null,
    "lines": ["90"]
  },
  {
    "name": "ZAVENTEM",
    "nameClean": "Zaventem",
    "url": "https://nl.wikipedia.org/wiki/Station_Zaventem",
    "lat": 50.88516891839885,
    "lon": 4.471047967672348,
    "region": "VLG",
    "province": "VBR",
    "city": "23094",
    "telegraphcode": "FZA",
    "opened": 1866,
    "platforms": 4,
    "tracks": null,
    "lines": ["36"]
  },
  {
    "name": "ZEDELGEM",
    "nameClean": "Zedelgem",
    "url": "https://nl.wikipedia.org/wiki/Station_Zedelgem",
    "lat": 51.12666243768794,
    "lon": 3.1638115990239157,
    "region": "VLG",
    "province": "VWV",
    "city": "31040",
    "telegraphcode": "LZM",
    "opened": 1846,
    "platforms": 2,
    "tracks": null,
    "lines": ["66"]
  },
  {
    "name": "ZEEBRUGGE-DORP",
    "nameClean": "Zeebrugge-Dorp",
    "url": "https://nl.wikipedia.org/wiki/Station_Zeebrugge-Dorp",
    "lat": 51.326458841988035,
    "lon": 3.195117201223411,
    "region": "VLG",
    "province": "VWV",
    "city": "31005",
    "telegraphcode": "LZE",
    "opened": 1868,
    "platforms": null,
    "tracks": 2,
    "lines": ["51A"]
  },
  {
    "name": "ZEEBRUGGE-STRAND",
    "nameClean": "Zeebrugge-Strand",
    "url": "https://nl.wikipedia.org/wiki/Station_Zeebrugge-Strand",
    "lat": 51.33026891223646,
    "lon": 3.1842099130153656,
    "region": "VLG",
    "province": "VWV",
    "city": "31005",
    "telegraphcode": "LZES",
    "opened": 2001,
    "platforms": null,
    "tracks": 1,
    "lines": ["51A"]
  },
  {
    "name": "ZELE",
    "nameClean": "Zele",
    "url": "https://nl.wikipedia.org/wiki/Station_Zele",
    "lat": 51.072935180583556,
    "lon": 4.042326360940933,
    "region": "VLG",
    "province": "VOV",
    "city": "42028",
    "telegraphcode": "FZ",
    "opened": 1856,
    "platforms": null,
    "tracks": 2,
    "lines": ["57"]
  },
  {
    "name": "ZELLIK",
    "nameClean": "Zellik",
    "url": "https://nl.wikipedia.org/wiki/Station_Zellik",
    "lat": 50.889919898788875,
    "lon": 4.274840452477633,
    "region": "VLG",
    "province": "VBR",
    "city": "23002",
    "telegraphcode": "FZI",
    "opened": 1881,
    "platforms": 2,
    "tracks": null,
    "lines": ["60"]
  },
  {
    "name": "ZICHEM",
    "nameClean": "Zichem",
    "url": "https://nl.wikipedia.org/wiki/Station_Zichem",
    "lat": 51.0062689047594,
    "lon": 4.988380961971302,
    "region": "VLG",
    "province": "VBR",
    "city": "24134",
    "telegraphcode": "GZC",
    "opened": 1865,
    "platforms": 2,
    "tracks": null,
    "lines": ["35"]
  },
  {
    "name": "ZINGEM",
    "nameClean": "Zingem",
    "url": "https://nl.wikipedia.org/wiki/Station_Zingem",
    "lat": 50.908016551872066,
    "lon": 3.6465007066726685,
    "region": "VLG",
    "province": "VOV",
    "city": "45068",
    "telegraphcode": "FZG",
    "opened": 1857,
    "platforms": null,
    "tracks": 2,
    "lines": ["86"]
  },
  {
    "name": "ZOLDER",
    "nameClean": "Zolder",
    "url": "https://nl.wikipedia.org/wiki/Station_Zolder",
    "lat": 51.03354949730165,
    "lon": 5.329782664775848,
    "region": "VLG",
    "province": "VLI",
    "city": "71070",
    "telegraphcode": "MZD",
    "opened": 1925,
    "platforms": 1,
    "tracks": null,
    "lines": ["15"]
  },
  {
    "name": "ZONHOVEN",
    "nameClean": "Zonhoven",
    "url": "https://nl.wikipedia.org/wiki/Station_Zonhoven",
    "lat": 50.98987926313181,
    "lon": 5.348862261430668,
    "region": "VLG",
    "province": "VLI",
    "city": "71066",
    "telegraphcode": "LZH",
    "opened": 1866,
    "platforms": null,
    "tracks": null,
    "lines": ["15"]
  },
  {
    "name": "ZOTTEGEM",
    "nameClean": "Zottegem",
    "url": "https://nl.wikipedia.org/wiki/Station_Zottegem",
    "lat": 50.868828412126035,
    "lon": 3.8141977787017822,
    "region": "VLG",
    "province": "VOV",
    "city": "41081",
    "telegraphcode": "FZT",
    "opened": 1867,
    "platforms": 4,
    "tracks": 7,
    "lines": ["89", "122"]
  },
  {
    "name": "ZWIJNDRECHT",
    "nameClean": "Zwijndrecht",
    "url": "https://nl.wikipedia.org/wiki/Station_Zwijndrecht",
    "lat": 51.21414984344106,
    "lon": 4.329926915243277,
    "region": "VLG",
    "province": "VAN",
    "city": "11056",
    "telegraphcode": "LZD",
    "opened": 1849,
    "platforms": 2,
    "tracks": null,
    "lines": ["59"]
  }
]
